{
  "jobs": [
    {
      "rmk_id": "72769",
      "title": "Filialleiter (m/w/d) - Region Rapperswil",
      "shift_type": "100%",
      "shift": "100%",
      "url": "job/1231087401",
      "top_job": 1,
      "area_of_activity": 322,
      "area_of_activity_title": "Filialführung",
      "workload": 56,
      "career_level": 43,
      "career_level_title": "Berufserfahrener",
      "related_jobs_data": null,
      "sys_language_uid": 0,
      "latitude": "47.228919",
      "longitude": "8.9651441",
      "city": "Uznach",
      "address": "Wiesentalstrasse 2",
      "zip": "8730",
      "jc_uid": 36173,
      "j_uid": 36173,
      "job_id": "1231087401",
      "start_date": ""
    },
    {
      "rmk_id": "66385",
      "title": "Mitarbeiter Verkauf (m/w/d)",
      "shift_type": "40 - 80%",
      "shift": "40 - 80%",
      "url": "job/1081355201",
      "top_job": 1,
      "area_of_activity": 323,
      "area_of_activity_title": "Filialteam",
      "workload": 63,
      "career_level": 55,
      "career_level_title": "Berufseinsteiger/Berufserfahrener",
      "related_jobs_data": null,
      "sys_language_uid": 0,
      "latitude": "47.2128166",
      "longitude": "7.7868336",
      "city": "Langenthal",
      "address": "Brauihof 22",
      "zip": "4900",
      "jc_uid": 30680,
      "j_uid": 30680,
      "job_id": "1081355201",
      "start_date": ""
    },
    {
      "rmk_id": "70280",
      "title": "Mitarbeiter Verkauf (m/w/d)",
      "shift_type": "40 - 70%",
      "shift": "40 - 70%",
      "url": "job/1172768001",
      "top_job": 1,
      "area_of_activity": 323,
      "area_of_activity_title": "Filialteam",
      "workload": 59,
      "career_level": 55,
      "career_level_title": "Berufseinsteiger/Berufserfahrener",
      "related_jobs_data": null,
      "sys_language_uid": 0,
      "latitude": "47.1358245",
      "longitude": "7.2480379",
      "city": "Biel Esplanade",
      "address": "Zentralstrasse 63",
      "zip": "2502",
      "jc_uid": 34081,
      "j_uid": 34081,
      "job_id": "1172768001",
      "start_date": ""
    },
    {
      "rmk_id": "72182",
      "title": "Stellvertretender Filialleiter (m/w/d)",
      "shift_type": "60 - 80%",
      "shift": "60 - 80%",
      "url": "job/1218467201",
      "top_job": 1,
      "area_of_activity": 323,
      "area_of_activity_title": "Filialteam",
      "workload": 59,
      "career_level": 43,
      "career_level_title": "Berufserfahrener",
      "related_jobs_data": null,
      "sys_language_uid": 0,
      "latitude": "47.3697095",
      "longitude": "8.7719418",
      "city": "Pfäffikon",
      "address": "Speckstrasse 1",
      "zip": "8330",
      "jc_uid": 35769,
      "j_uid": 35769,
      "job_id": "1218467201",
      "start_date": ""
    },
    {
      "rmk_id": "72582",
      "title": "Apprendista nel commercio al dettaglio (m/f/x)",
      "shift_type": "CFP / AFC",
      "shift": "",
      "url": "job/1236558301",
      "top_job": 0,
      "area_of_activity": 323,
      "area_of_activity_title": "Filialteam",
      "workload": 56,
      "career_level": 40,
      "career_level_title": "Lernender",
      "related_jobs_data": null,
      "sys_language_uid": 2,
      "latitude": "46.0150156",
      "longitude": "8.9408604",
      "city": "Massagno",
      "address": "Via Val Gersa 4",
      "zip": "6900",
      "jc_uid": 36420,
      "j_uid": 36420,
      "job_id": "1236558301",
      "start_date": ""
    },
    {
      "rmk_id": "72489",
      "title": "Apprendista nel commercio al dettaglio (m/f/x)",
      "shift_type": "CFP / AFC",
      "shift": "",
      "url": "job/1236557601",
      "top_job": 0,
      "area_of_activity": 323,
      "area_of_activity_title": "Filialteam",
      "workload": 56,
      "career_level": 40,
      "career_level_title": "Lernender",
      "related_jobs_data": null,
      "sys_language_uid": 2,
      "latitude": "46.3496258",
      "longitude": "8.9743301",
      "city": "Biasca",
      "address": "Via Bellinzona 46",
      "zip": "6710",
      "jc_uid": 36421,
      "j_uid": 36421,
      "job_id": "1236557601",
      "start_date": ""
    },
    {
      "rmk_id": "72655",
      "title": "Apprendista nel commercio al dettaglio (m/f/x)",
      "shift_type": "CFP / AFC",
      "shift": "",
      "url": "job/1236558901",
      "top_job": 0,
      "area_of_activity": 323,
      "area_of_activity_title": "Filialteam",
      "workload": 56,
      "career_level": 40,
      "career_level_title": "Lernender",
      "related_jobs_data": null,
      "sys_language_uid": 2,
      "latitude": "46.1638441",
      "longitude": "8.7700308",
      "city": "Losone",
      "address": "Via Prati dei Vizi 10",
      "zip": "6616",
      "jc_uid": 36422,
      "j_uid": 36422,
      "job_id": "1236558901",
      "start_date": ""
    },
    {
      "rmk_id": "72579",
      "title": "Apprendista nel commercio al dettaglio (m/f/x)",
      "shift_type": "CFP / AFC",
      "shift": "",
      "url": "job/1236558401",
      "top_job": 0,
      "area_of_activity": 323,
      "area_of_activity_title": "Filialteam",
      "workload": 56,
      "career_level": 40,
      "career_level_title": "Lernender",
      "related_jobs_data": null,
      "sys_language_uid": 2,
      "latitude": "45.9875347",
      "longitude": "8.9378961",
      "city": "Pambio-Noranco",
      "address": "Strada dala Curona 3",
      "zip": "6915",
      "jc_uid": 36423,
      "j_uid": 36423,
      "job_id": "1236558401",
      "start_date": ""
    },
    {
      "rmk_id": "72654",
      "title": "Apprendista nel commercio al dettaglio (m/f/x)",
      "shift_type": "CFP / AFC",
      "shift": "",
      "url": "job/1236559001",
      "top_job": 0,
      "area_of_activity": 323,
      "area_of_activity_title": "Filialteam",
      "workload": 56,
      "career_level": 40,
      "career_level_title": "Lernender",
      "related_jobs_data": null,
      "sys_language_uid": 2,
      "latitude": "46.1756644",
      "longitude": "8.8902512",
      "city": "Riazzino-Lavertezzo",
      "address": "Via Cantonale 95",
      "zip": "6595",
      "jc_uid": 36424,
      "j_uid": 36424,
      "job_id": "1236559001",
      "start_date": ""
    },
    {
      "rmk_id": "72652",
      "title": "Apprendista nel commercio al dettaglio (m/f/x)",
      "shift_type": "CFP / AFC",
      "shift": "",
      "url": "job/1236559101",
      "top_job": 0,
      "area_of_activity": 323,
      "area_of_activity_title": "Filialteam",
      "workload": 56,
      "career_level": 40,
      "career_level_title": "Lernender",
      "related_jobs_data": null,
      "sys_language_uid": 2,
      "latitude": "46.1529697",
      "longitude": "8.9138294",
      "city": "Quartino",
      "address": "Via Monte Ceneri 6",
      "zip": "6572",
      "jc_uid": 36425,
      "j_uid": 36425,
      "job_id": "1236559101",
      "start_date": ""
    },
    {
      "rmk_id": "72650",
      "title": "Apprendista nel commercio al dettaglio (m/f/x)",
      "shift_type": "CFP / AFC",
      "shift": "",
      "url": "job/1236559401",
      "top_job": 0,
      "area_of_activity": 323,
      "area_of_activity_title": "Filialteam",
      "workload": 56,
      "career_level": 40,
      "career_level_title": "Lernender",
      "related_jobs_data": null,
      "sys_language_uid": 2,
      "latitude": "46.0165014",
      "longitude": "8.9124618",
      "city": "Bioggio",
      "address": "Via della Posta 23",
      "zip": "6934",
      "jc_uid": 36426,
      "j_uid": 36426,
      "job_id": "1236559401",
      "start_date": ""
    },
    {
      "rmk_id": "72510",
      "title": "Apprendista nel commercio al dettaglio (m/f/x)",
      "shift_type": "CFP / AFC",
      "shift": "",
      "url": "job/1236557201",
      "top_job": 0,
      "area_of_activity": 323,
      "area_of_activity_title": "Filialteam",
      "workload": 56,
      "career_level": 40,
      "career_level_title": "Lernender",
      "related_jobs_data": null,
      "sys_language_uid": 2,
      "latitude": "46.0898182",
      "longitude": "8.9214891",
      "city": "Mezzovico",
      "address": "Via Cantonale 4",
      "zip": "6805",
      "jc_uid": 36427,
      "j_uid": 36427,
      "job_id": "1236557201",
      "start_date": ""
    },
    {
      "rmk_id": "72585",
      "title": "Apprendista nel commercio al dettaglio (m/f/x)",
      "shift_type": "CFP / AFC",
      "shift": "",
      "url": "job/1236557801",
      "top_job": 0,
      "area_of_activity": 323,
      "area_of_activity_title": "Filialteam",
      "workload": 56,
      "career_level": 40,
      "career_level_title": "Lernender",
      "related_jobs_data": null,
      "sys_language_uid": 2,
      "latitude": "46.021393",
      "longitude": "8.9663878",
      "city": "Lugano-Pregassona",
      "address": "Via Ceresio 40",
      "zip": "6963",
      "jc_uid": 36428,
      "j_uid": 36428,
      "job_id": "1236557801",
      "start_date": ""
    },
    {
      "rmk_id": "72584",
      "title": "Apprendista nel commercio al dettaglio (m/f/x)",
      "shift_type": "CFP / AFC",
      "shift": "",
      "url": "job/1236558001",
      "top_job": 0,
      "area_of_activity": 323,
      "area_of_activity_title": "Filialteam",
      "workload": 56,
      "career_level": 40,
      "career_level_title": "Lernender",
      "related_jobs_data": null,
      "sys_language_uid": 2,
      "latitude": "45.9961311",
      "longitude": "8.9044171",
      "city": "Agno",
      "address": "Via Chiodenda 7",
      "zip": "6982",
      "jc_uid": 36429,
      "j_uid": 36429,
      "job_id": "1236558001",
      "start_date": ""
    },
    {
      "rmk_id": "72583",
      "title": "Apprendista nel commercio al dettaglio (m/f/x)",
      "shift_type": "CFP / AFC",
      "shift": "",
      "url": "job/1236558101",
      "top_job": 0,
      "area_of_activity": 323,
      "area_of_activity_title": "Filialteam",
      "workload": 56,
      "career_level": 40,
      "career_level_title": "Lernender",
      "related_jobs_data": null,
      "sys_language_uid": 2,
      "latitude": "45.8463963",
      "longitude": "9.0149235",
      "city": "Morbio Inferiore",
      "address": "Viale Serfontana 16",
      "zip": "6834",
      "jc_uid": 36430,
      "j_uid": 36430,
      "job_id": "1236558101",
      "start_date": ""
    },
    {
      "rmk_id": "72649",
      "title": "Apprendista nel commercio al dettaglio (m/f/x)",
      "shift_type": "CFP / AFC",
      "shift": "",
      "url": "job/1236559501",
      "top_job": 0,
      "area_of_activity": 323,
      "area_of_activity_title": "Filialteam",
      "workload": 56,
      "career_level": 40,
      "career_level_title": "Lernender",
      "related_jobs_data": null,
      "sys_language_uid": 2,
      "latitude": "45.8770019",
      "longitude": "8.9842287",
      "city": "Mendrisio",
      "address": "Via San Martino 16",
      "zip": "6850",
      "jc_uid": 36431,
      "j_uid": 36431,
      "job_id": "1236559501",
      "start_date": ""
    },
    {
      "rmk_id": "72702",
      "title": "Apprenti(e) du commerce de détail (CFC ou AFP)",
      "shift_type": "AFP / CFC",
      "shift": "",
      "url": "job/1230027401",
      "top_job": 0,
      "area_of_activity": 323,
      "area_of_activity_title": "Filialteam",
      "workload": 56,
      "career_level": 40,
      "career_level_title": "Lernender",
      "related_jobs_data": null,
      "sys_language_uid": 4,
      "latitude": "47.363535",
      "longitude": "7.3452462",
      "city": "Delémont",
      "address": "Rue du Stand 1",
      "zip": "2800",
      "jc_uid": 36176,
      "j_uid": 36176,
      "job_id": "1230027401",
      "start_date": ""
    },
    {
      "rmk_id": "72708",
      "title": "Apprenti(e) du commerce de détail (CFC ou AFP)",
      "shift_type": "AFP / CFC",
      "shift": "",
      "url": "job/1230034501",
      "top_job": 0,
      "area_of_activity": 323,
      "area_of_activity_title": "Filialteam",
      "workload": 56,
      "career_level": 40,
      "career_level_title": "Lernender",
      "related_jobs_data": null,
      "sys_language_uid": 4,
      "latitude": "46.8033847",
      "longitude": "7.1536871",
      "city": "Fribourg",
      "address": "Avenue de la gare 22",
      "zip": "1700",
      "jc_uid": 36204,
      "j_uid": 36204,
      "job_id": "1230034501",
      "start_date": ""
    },
    {
      "rmk_id": "72697",
      "title": "Apprenti(e) du commerce de détail (CFC ou AFP)",
      "shift_type": "AFP / CFC",
      "shift": "",
      "url": "job/1230026401",
      "top_job": 0,
      "area_of_activity": 323,
      "area_of_activity_title": "Filialteam",
      "workload": 56,
      "career_level": 40,
      "career_level_title": "Lernender",
      "related_jobs_data": null,
      "sys_language_uid": 4,
      "latitude": "46.5460523",
      "longitude": "6.5643483",
      "city": "Bussigny",
      "address": "Route de Renens 8",
      "zip": "1030",
      "jc_uid": 36214,
      "j_uid": 36214,
      "job_id": "1230026401",
      "start_date": ""
    },
    {
      "rmk_id": "72703",
      "title": "Apprenti(e) du commerce de détail (CFC ou AFP)",
      "shift_type": "AFP / CFC",
      "shift": "",
      "url": "job/1230028701",
      "top_job": 0,
      "area_of_activity": 323,
      "area_of_activity_title": "Filialteam",
      "workload": 56,
      "career_level": 40,
      "career_level_title": "Lernender",
      "related_jobs_data": null,
      "sys_language_uid": 4,
      "latitude": "46.7194588",
      "longitude": "6.546187",
      "city": "Orbe",
      "address": "Chemin des Taborneires 6",
      "zip": "1350",
      "jc_uid": 36218,
      "j_uid": 36218,
      "job_id": "1230028701",
      "start_date": ""
    },
    {
      "rmk_id": "72710",
      "title": "Apprenti(e) du commerce de détail (CFC ou AFP)",
      "shift_type": "AFP / CFC",
      "shift": "",
      "url": "job/1230027701",
      "top_job": 0,
      "area_of_activity": 323,
      "area_of_activity_title": "Filialteam",
      "workload": 56,
      "career_level": 40,
      "career_level_title": "Lernender",
      "related_jobs_data": null,
      "sys_language_uid": 4,
      "latitude": "46.5316266",
      "longitude": "6.5734982",
      "city": "Chavannes-près-Renens",
      "address": "Avenue de la Concorde 24",
      "zip": "1022",
      "jc_uid": 36219,
      "j_uid": 36219,
      "job_id": "1230027701",
      "start_date": ""
    },
    {
      "rmk_id": "72700",
      "title": "Apprenti(e) du commerce de détail (CFC ou AFP)",
      "shift_type": "AFP / CFC",
      "shift": "",
      "url": "job/1230027001",
      "top_job": 0,
      "area_of_activity": 323,
      "area_of_activity_title": "Filialteam",
      "workload": 56,
      "career_level": 40,
      "career_level_title": "Lernender",
      "related_jobs_data": null,
      "sys_language_uid": 4,
      "latitude": "46.4738051",
      "longitude": "6.4273192",
      "city": "Etoy",
      "address": "Rue de la Chenalette 177",
      "zip": "1163",
      "jc_uid": 36229,
      "j_uid": 36229,
      "job_id": "1230027001",
      "start_date": ""
    },
    {
      "rmk_id": "72701",
      "title": "Apprenti(e) du commerce de détail (CFC ou AFP)",
      "shift_type": "AFP / CFC",
      "shift": "",
      "url": "job/1230033201",
      "top_job": 0,
      "area_of_activity": 323,
      "area_of_activity_title": "Filialteam",
      "workload": 56,
      "career_level": 40,
      "career_level_title": "Lernender",
      "related_jobs_data": null,
      "sys_language_uid": 4,
      "latitude": "46.9174659",
      "longitude": "7.1086623",
      "city": "Courgevaux",
      "address": "Länggasse 47",
      "zip": "1796",
      "jc_uid": 36231,
      "j_uid": 36231,
      "job_id": "1230033201",
      "start_date": ""
    },
    {
      "rmk_id": "72698",
      "title": "Apprenti(e) du commerce de détail (CFC ou AFP)",
      "shift_type": "AFP / CFC",
      "shift": "",
      "url": "job/1230026601",
      "top_job": 0,
      "area_of_activity": 323,
      "area_of_activity_title": "Filialteam",
      "workload": 56,
      "career_level": 40,
      "career_level_title": "Lernender",
      "related_jobs_data": null,
      "sys_language_uid": 4,
      "latitude": "46.5160662",
      "longitude": "6.5051579",
      "city": "Morges",
      "address": "Rue de Lausanne 47",
      "zip": "1110",
      "jc_uid": 36246,
      "j_uid": 36246,
      "job_id": "1230026601",
      "start_date": ""
    },
    {
      "rmk_id": "72707",
      "title": "Apprenti(e) du commerce de détail (CFC ou AFP)",
      "shift_type": "AFP / CFC",
      "shift": "",
      "url": "job/1230026201",
      "top_job": 0,
      "area_of_activity": 323,
      "area_of_activity_title": "Filialteam",
      "workload": 56,
      "career_level": 40,
      "career_level_title": "Lernender",
      "related_jobs_data": null,
      "sys_language_uid": 4,
      "latitude": "46.4650619",
      "longitude": "6.8391098",
      "city": "Vevey",
      "address": "Avenue du Général-Guisan 32",
      "zip": "1800",
      "jc_uid": 36247,
      "j_uid": 36247,
      "job_id": "1230026201",
      "start_date": ""
    },
    {
      "rmk_id": "72705",
      "title": "Apprenti(e) du commerce de détail (CFC ou AFP)",
      "shift_type": "AFP / CFC",
      "shift": "",
      "url": "job/1230027901",
      "top_job": 0,
      "area_of_activity": 323,
      "area_of_activity_title": "Filialteam",
      "workload": 56,
      "career_level": 40,
      "career_level_title": "Lernender",
      "related_jobs_data": null,
      "sys_language_uid": 4,
      "latitude": "46.9905721",
      "longitude": "6.9304387",
      "city": "Neuchâtel",
      "address": "Rue St-Honoré 18",
      "zip": "2000",
      "jc_uid": 36248,
      "j_uid": 36248,
      "job_id": "1230027901",
      "start_date": ""
    },
    {
      "rmk_id": "72706",
      "title": "Apprenti(e) du commerce de détail (CFC ou AFP)",
      "shift_type": "AFP/ CFC",
      "shift": "",
      "url": "job/1230026001",
      "top_job": 0,
      "area_of_activity": 323,
      "area_of_activity_title": "Filialteam",
      "workload": 56,
      "career_level": 40,
      "career_level_title": "Lernender",
      "related_jobs_data": null,
      "sys_language_uid": 4,
      "latitude": "46.385009",
      "longitude": "6.9200507",
      "city": "Noville",
      "address": "Les Malliez 1",
      "zip": "1845",
      "jc_uid": 36253,
      "j_uid": 36253,
      "job_id": "1230026001",
      "start_date": ""
    },
    {
      "rmk_id": "72699",
      "title": "Apprenti(e) du commerce de détail (CFC ou AFP)",
      "shift_type": "AFP / CFC",
      "shift": "",
      "url": "job/1230026801",
      "top_job": 0,
      "area_of_activity": 323,
      "area_of_activity_title": "Filialteam",
      "workload": 56,
      "career_level": 40,
      "career_level_title": "Lernender",
      "related_jobs_data": null,
      "sys_language_uid": 4,
      "latitude": "46.4260358",
      "longitude": "6.2533589",
      "city": "Vich",
      "address": "Route de Gland 36",
      "zip": "1267",
      "jc_uid": 36254,
      "j_uid": 36254,
      "job_id": "1230026801",
      "start_date": ""
    },
    {
      "rmk_id": "63528",
      "title": "Area Manager - Genève / Lausanne",
      "shift_type": "100%",
      "shift": "100%",
      "url": "job/1012098901",
      "top_job": 0,
      "area_of_activity": 321,
      "area_of_activity_title": "Area Manager",
      "workload": 56,
      "career_level": 55,
      "career_level_title": "Berufseinsteiger/Berufserfahrener",
      "related_jobs_data": null,
      "sys_language_uid": 4,
      "latitude": "46.8759734",
      "longitude": "7.0172123",
      "city": "Domdidier",
      "address": "Route de I'Industrie 93 Case Postale 153",
      "zip": "1564",
      "jc_uid": 28197,
      "j_uid": 28197,
      "job_id": "1012098901",
      "start_date": ""
    },
    {
      "rmk_id": "63323",
      "title": "Area Manager - Genf / Lausanne",
      "shift_type": "100%",
      "shift": "100%",
      "url": "job/1007064001",
      "top_job": 0,
      "area_of_activity": 321,
      "area_of_activity_title": "Area Manager",
      "workload": 56,
      "career_level": 55,
      "career_level_title": "Berufseinsteiger/Berufserfahrener",
      "related_jobs_data": null,
      "sys_language_uid": 0,
      "latitude": "46.8759734",
      "longitude": "7.0172123",
      "city": "Domdidier",
      "address": "Route de I'Industrie 93 Case Postale 153",
      "zip": "1564",
      "jc_uid": 28013,
      "j_uid": 28013,
      "job_id": "1007064001",
      "start_date": ""
    },
    {
      "rmk_id": "58467",
      "title": "Area Manager - Westschweiz",
      "shift_type": "100%",
      "shift": "100%",
      "url": "job/869891701",
      "top_job": 0,
      "area_of_activity": 321,
      "area_of_activity_title": "Area Manager",
      "workload": 56,
      "career_level": 55,
      "career_level_title": "Berufseinsteiger/Berufserfahrener",
      "related_jobs_data": null,
      "sys_language_uid": 0,
      "latitude": "46.8759734",
      "longitude": "7.0172123",
      "city": "Domdidier",
      "address": "Route de I'Industrie 93 Case Postale 153",
      "zip": "1564",
      "jc_uid": 21702,
      "j_uid": 21702,
      "job_id": "869891701",
      "start_date": ""
    },
    {
      "rmk_id": "71658",
      "title": "Collaborateur de vente (m/f/d)",
      "shift_type": "60%",
      "shift": "60%",
      "url": "job/1206542401",
      "top_job": 0,
      "area_of_activity": 323,
      "area_of_activity_title": "Filialteam",
      "workload": 59,
      "career_level": 55,
      "career_level_title": "Berufseinsteiger/Berufserfahrener",
      "related_jobs_data": null,
      "sys_language_uid": 4,
      "latitude": "46.2279663",
      "longitude": "7.3795053",
      "city": "Sion",
      "address": "Rue des Casernes 55a",
      "zip": "1950",
      "jc_uid": 35307,
      "j_uid": 35307,
      "job_id": "1206542401",
      "start_date": ""
    },
    {
      "rmk_id": "73009",
      "title": "Collaborateur de vente (m/f/d)",
      "shift_type": "50%",
      "shift": "50%",
      "url": "job/1239096101",
      "top_job": 0,
      "area_of_activity": 323,
      "area_of_activity_title": "Filialteam",
      "workload": 59,
      "career_level": 55,
      "career_level_title": "Berufseinsteiger/Berufserfahrener",
      "related_jobs_data": null,
      "sys_language_uid": 4,
      "latitude": "46.7194588",
      "longitude": "6.546187",
      "city": "Orbe",
      "address": "Chemin des Taborneires 6",
      "zip": "1350",
      "jc_uid": 36480,
      "j_uid": 36480,
      "job_id": "1239096101",
      "start_date": ""
    },
    {
      "rmk_id": "62868",
      "title": "Filialleiter (m/w/d) - Bezirk Horgen",
      "shift_type": "100%",
      "shift": "100%",
      "url": "job/993094701",
      "top_job": 0,
      "area_of_activity": 322,
      "area_of_activity_title": "Filialführung",
      "workload": 56,
      "career_level": 43,
      "career_level_title": "Berufserfahrener",
      "related_jobs_data": null,
      "sys_language_uid": 0,
      "latitude": "47.2464972",
      "longitude": "8.6464254",
      "city": "Wädenswil/Au",
      "address": "Seestrasse 302-304",
      "zip": "8820",
      "jc_uid": 27636,
      "j_uid": 27636,
      "job_id": "993094701",
      "start_date": ""
    },
    {
      "rmk_id": "62867",
      "title": "Filialleiter (m/w/d) - Region Limmattal",
      "shift_type": "100%",
      "shift": "100%",
      "url": "job/993093401",
      "top_job": 0,
      "area_of_activity": 322,
      "area_of_activity_title": "Filialführung",
      "workload": 56,
      "career_level": 43,
      "career_level_title": "Berufserfahrener",
      "related_jobs_data": null,
      "sys_language_uid": 0,
      "latitude": "47.398446",
      "longitude": "8.4596989",
      "city": "Schlieren",
      "address": "Wagistrasse 20",
      "zip": "8952",
      "jc_uid": 27635,
      "j_uid": 27635,
      "job_id": "993093401",
      "start_date": ""
    },
    {
      "rmk_id": "69638",
      "title": "Filialleiter (m/w/d) - Region Luzern",
      "shift_type": "100%",
      "shift": "100%",
      "url": "job/1160149501",
      "top_job": 0,
      "area_of_activity": 322,
      "area_of_activity_title": "Filialführung",
      "workload": 56,
      "career_level": 43,
      "career_level_title": "Berufserfahrener",
      "related_jobs_data": null,
      "sys_language_uid": 0,
      "latitude": "47.1703583",
      "longitude": "8.095209",
      "city": "Sursee",
      "address": "Umfahrungsstrasse 1",
      "zip": "6210",
      "jc_uid": 33536,
      "j_uid": 33536,
      "job_id": "1160149501",
      "start_date": ""
    },
    {
      "rmk_id": "70509",
      "title": "Filialleiter (m/w/d) - Region Wil SG",
      "shift_type": "100%",
      "shift": "100%",
      "url": "job/1181444801",
      "top_job": 0,
      "area_of_activity": 322,
      "area_of_activity_title": "Filialführung",
      "workload": 56,
      "career_level": 43,
      "career_level_title": "Berufserfahrener",
      "related_jobs_data": null,
      "sys_language_uid": 0,
      "latitude": "47.463932",
      "longitude": "9.0433248",
      "city": "Wil",
      "address": "Obere Bahnhofstrasse 19",
      "zip": "9500",
      "jc_uid": 34407,
      "j_uid": 34407,
      "job_id": "1181444801",
      "start_date": ""
    },
    {
      "rmk_id": "70278",
      "title": "Filialleiter (m/w/d) - Region Zug",
      "shift_type": "",
      "shift": "100%",
      "url": "job/1196343901",
      "top_job": 0,
      "area_of_activity": 322,
      "area_of_activity_title": "Filialführung",
      "workload": 56,
      "career_level": 43,
      "career_level_title": "Berufserfahrener",
      "related_jobs_data": null,
      "sys_language_uid": 0,
      "latitude": "47.1961923",
      "longitude": "8.5305008",
      "city": "Baar",
      "address": "Oberdorfstrasse 9",
      "zip": "6340",
      "jc_uid": 34992,
      "j_uid": 34992,
      "job_id": "1196343901",
      "start_date": ""
    },
    {
      "rmk_id": "71529",
      "title": "Filialleiter (m/w/d) - Stadt Zürich",
      "shift_type": "100%",
      "shift": "100%",
      "url": "job/1203703601",
      "top_job": 0,
      "area_of_activity": 322,
      "area_of_activity_title": "Filialführung",
      "workload": 56,
      "career_level": 43,
      "career_level_title": "Berufserfahrener",
      "related_jobs_data": null,
      "sys_language_uid": 0,
      "latitude": "47.3737269",
      "longitude": "8.5376525",
      "city": "Zürich",
      "address": "Sihlstrasse 3",
      "zip": "8001",
      "jc_uid": 35196,
      "j_uid": 35196,
      "job_id": "1203703601",
      "start_date": ""
    },
    {
      "rmk_id": "72711",
      "title": "Lernender Detailhandel (m/w/d)",
      "shift_type": "EBA / EFZ",
      "shift": "",
      "url": "job/1229860101",
      "top_job": 0,
      "area_of_activity": 323,
      "area_of_activity_title": "Filialteam",
      "workload": 56,
      "career_level": 40,
      "career_level_title": "Lernender",
      "related_jobs_data": null,
      "sys_language_uid": 0,
      "latitude": "46.2949297",
      "longitude": "7.9157522",
      "city": "Visp-Eyholz",
      "address": "Kantonsstrasse 66a",
      "zip": "3930",
      "jc_uid": 36134,
      "j_uid": 36134,
      "job_id": "1229860101",
      "start_date": ""
    },
    {
      "rmk_id": "72504",
      "title": "Lernender Detailhandel (m/w/d)",
      "shift_type": "EBA und EFZ",
      "shift": "",
      "url": "job/1224967701",
      "top_job": 0,
      "area_of_activity": 323,
      "area_of_activity_title": "Filialteam",
      "workload": 56,
      "career_level": 40,
      "career_level_title": "Lernender",
      "related_jobs_data": null,
      "sys_language_uid": 0,
      "latitude": "47.0926813",
      "longitude": "9.0585912",
      "city": "Näfels",
      "address": "Oberdorf 54",
      "zip": "8752",
      "jc_uid": 36174,
      "j_uid": 36174,
      "job_id": "1224967701",
      "start_date": ""
    },
    {
      "rmk_id": "72469",
      "title": "Lernender Detailhandel (m/w/d)",
      "shift_type": "EBA und EFZ",
      "shift": "",
      "url": "job/1224940601",
      "top_job": 0,
      "area_of_activity": 323,
      "area_of_activity_title": "Filialteam",
      "workload": 56,
      "career_level": 40,
      "career_level_title": "Lernender",
      "related_jobs_data": null,
      "sys_language_uid": 0,
      "latitude": "46.9559205",
      "longitude": "9.5637477",
      "city": "Landquart",
      "address": "Schulstrasse 82",
      "zip": "7302",
      "jc_uid": 36175,
      "j_uid": 36175,
      "job_id": "1224940601",
      "start_date": ""
    },
    {
      "rmk_id": "72724",
      "title": "Lernender Detailhandel (m/w/d)",
      "shift_type": "EBA / EFZ",
      "shift": "",
      "url": "job/1230031901",
      "top_job": 0,
      "area_of_activity": 323,
      "area_of_activity_title": "Filialteam",
      "workload": 56,
      "career_level": 40,
      "career_level_title": "Lernender",
      "related_jobs_data": null,
      "sys_language_uid": 0,
      "latitude": "46.9491111",
      "longitude": "7.4094552",
      "city": "Bern",
      "address": "Murtenstrasse 143",
      "zip": "3008",
      "jc_uid": 36177,
      "j_uid": 36177,
      "job_id": "1230031901",
      "start_date": ""
    },
    {
      "rmk_id": "72713",
      "title": "Lernender Detailhandel (m/w/d)",
      "shift_type": "EBA / EFZ",
      "shift": "",
      "url": "job/1230025001",
      "top_job": 0,
      "area_of_activity": 323,
      "area_of_activity_title": "Filialteam",
      "workload": 56,
      "career_level": 40,
      "career_level_title": "Lernender",
      "related_jobs_data": null,
      "sys_language_uid": 0,
      "latitude": "46.94043",
      "longitude": "7.7799474",
      "city": "Langnau im Emmental",
      "address": "Burgdorfstrasse 5",
      "zip": "3550",
      "jc_uid": 36178,
      "j_uid": 36178,
      "job_id": "1230025001",
      "start_date": ""
    },
    {
      "rmk_id": "72512",
      "title": "Lernender Detailhandel (m/w/d)",
      "shift_type": "EBA und EFZ",
      "shift": "",
      "url": "job/1225067701",
      "top_job": 0,
      "area_of_activity": 323,
      "area_of_activity_title": "Filialteam",
      "workload": 56,
      "career_level": 40,
      "career_level_title": "Lernender",
      "related_jobs_data": null,
      "sys_language_uid": 0,
      "latitude": "47.4083981",
      "longitude": "8.5956863",
      "city": "Wallisellen",
      "address": "Neue Winterthurerstrasse 99",
      "zip": "8304",
      "jc_uid": 36179,
      "j_uid": 36179,
      "job_id": "1225067701",
      "start_date": ""
    },
    {
      "rmk_id": "72464",
      "title": "Lernender Detailhandel (m/w/d)",
      "shift_type": "EBA und EFZ",
      "shift": "",
      "url": "job/1224935501",
      "top_job": 0,
      "area_of_activity": 323,
      "area_of_activity_title": "Filialteam",
      "workload": 56,
      "career_level": 40,
      "career_level_title": "Lernender",
      "related_jobs_data": null,
      "sys_language_uid": 0,
      "latitude": "47.5693742",
      "longitude": "8.9089996",
      "city": "Frauenfeld",
      "address": "Juchstrasse  28",
      "zip": "8500",
      "jc_uid": 36180,
      "j_uid": 36180,
      "job_id": "1224935501",
      "start_date": ""
    },
    {
      "rmk_id": "72465",
      "title": "Lernender Detailhandel (m/w/d)",
      "shift_type": "EBA und EFZ",
      "shift": "",
      "url": "job/1224938701",
      "top_job": 0,
      "area_of_activity": 323,
      "area_of_activity_title": "Filialteam",
      "workload": 56,
      "career_level": 40,
      "career_level_title": "Lernender",
      "related_jobs_data": null,
      "sys_language_uid": 0,
      "latitude": "46.7921139",
      "longitude": "9.8193208",
      "city": "Davos",
      "address": "Bahnhofstrasse 4A",
      "zip": "7270",
      "jc_uid": 36181,
      "j_uid": 36181,
      "job_id": "1224938701",
      "start_date": ""
    },
    {
      "rmk_id": "72460",
      "title": "Lernender Detailhandel (m/w/d)",
      "shift_type": "EBA und EFZ",
      "shift": "",
      "url": "job/1224945801",
      "top_job": 0,
      "area_of_activity": 323,
      "area_of_activity_title": "Filialteam",
      "workload": 56,
      "career_level": 40,
      "career_level_title": "Lernender",
      "related_jobs_data": null,
      "sys_language_uid": 0,
      "latitude": "47.4845151",
      "longitude": "9.5473263",
      "city": "Altenrhein",
      "address": "Knotternstrasse 4",
      "zip": "9423",
      "jc_uid": 36182,
      "j_uid": 36182,
      "job_id": "1224945801",
      "start_date": ""
    },
    {
      "rmk_id": "72471",
      "title": "Lernender Detailhandel (m/w/d)",
      "shift_type": "EBA und EFZ",
      "shift": "",
      "url": "job/1224948101",
      "top_job": 0,
      "area_of_activity": 323,
      "area_of_activity_title": "Filialteam",
      "workload": 56,
      "career_level": 40,
      "career_level_title": "Lernender",
      "related_jobs_data": null,
      "sys_language_uid": 0,
      "latitude": "47.5165451",
      "longitude": "8.5944121",
      "city": "Embrach",
      "address": "Industriestrasse 4",
      "zip": "8424",
      "jc_uid": 36183,
      "j_uid": 36183,
      "job_id": "1224948101",
      "start_date": ""
    },
    {
      "rmk_id": "72467",
      "title": "Lernender Detailhandel (m/w/d)",
      "shift_type": "EBA und EFZ",
      "shift": "",
      "url": "job/1224942101",
      "top_job": 0,
      "area_of_activity": 323,
      "area_of_activity_title": "Filialteam",
      "workload": 56,
      "career_level": 40,
      "career_level_title": "Lernender",
      "related_jobs_data": null,
      "sys_language_uid": 0,
      "latitude": "47.2572967",
      "longitude": "8.6833697",
      "city": "Männedorf",
      "address": "Seestrasse 61",
      "zip": "8708",
      "jc_uid": 36184,
      "j_uid": 36184,
      "job_id": "1224942101",
      "start_date": ""
    },
    {
      "rmk_id": "72527",
      "title": "Lernender Detailhandel (m/w/d)",
      "shift_type": "EFZ / EBA",
      "shift": "",
      "url": "job/1225414501",
      "top_job": 0,
      "area_of_activity": 323,
      "area_of_activity_title": "Filialteam",
      "workload": 56,
      "career_level": 40,
      "career_level_title": "Lernender",
      "related_jobs_data": null,
      "sys_language_uid": 0,
      "latitude": "47.5041075",
      "longitude": "7.5541765",
      "city": "Therwil",
      "address": "Oberwilerstrasse 40",
      "zip": "4106",
      "jc_uid": 36185,
      "j_uid": 36185,
      "job_id": "1225414501",
      "start_date": ""
    },
    {
      "rmk_id": "72466",
      "title": "Lernender Detailhandel (m/w/d)",
      "shift_type": "EBA und EFZ",
      "shift": "",
      "url": "job/1224939701",
      "top_job": 0,
      "area_of_activity": 323,
      "area_of_activity_title": "Filialteam",
      "workload": 56,
      "career_level": 40,
      "career_level_title": "Lernender",
      "related_jobs_data": null,
      "sys_language_uid": 0,
      "latitude": "47.3641902",
      "longitude": "9.5561945",
      "city": "Altstätten",
      "address": "Oberrieterstrasse 85",
      "zip": "9450",
      "jc_uid": 36186,
      "j_uid": 36186,
      "job_id": "1224939701",
      "start_date": ""
    },
    {
      "rmk_id": "72472",
      "title": "Lernender Detailhandel (m/w/d)",
      "shift_type": "EBA und EFZ",
      "shift": "",
      "url": "job/1224934601",
      "top_job": 0,
      "area_of_activity": 323,
      "area_of_activity_title": "Filialteam",
      "workload": 56,
      "career_level": 40,
      "career_level_title": "Lernender",
      "related_jobs_data": null,
      "sys_language_uid": 0,
      "latitude": "47.4165988",
      "longitude": "9.065466",
      "city": "Bazenheid",
      "address": "Wilerstrasse 50",
      "zip": "9602",
      "jc_uid": 36187,
      "j_uid": 36187,
      "job_id": "1224934601",
      "start_date": ""
    },
    {
      "rmk_id": "72550",
      "title": "Lernender Detailhandel (m/w/d)",
      "shift_type": "EFZ / EBA",
      "shift": "",
      "url": "job/1226505501",
      "top_job": 0,
      "area_of_activity": 323,
      "area_of_activity_title": "Filialteam",
      "workload": 56,
      "career_level": 40,
      "career_level_title": "Lernender",
      "related_jobs_data": null,
      "sys_language_uid": 0,
      "latitude": "46.9060017",
      "longitude": "8.2560314",
      "city": "Sarnen",
      "address": "Kägiswilerstrasse 39",
      "zip": "6060",
      "jc_uid": 36188,
      "j_uid": 36188,
      "job_id": "1226505501",
      "start_date": ""
    },
    {
      "rmk_id": "72552",
      "title": "Lernender Detailhandel (m/w/d)",
      "shift_type": "EFZ / EBA",
      "shift": "",
      "url": "job/1226505201",
      "top_job": 0,
      "area_of_activity": 323,
      "area_of_activity_title": "Filialteam",
      "workload": 56,
      "career_level": 40,
      "career_level_title": "Lernender",
      "related_jobs_data": null,
      "sys_language_uid": 0,
      "latitude": "47.398446",
      "longitude": "8.4596989",
      "city": "Schlieren",
      "address": "Wagistrasse 20",
      "zip": "8952",
      "jc_uid": 36189,
      "j_uid": 36189,
      "job_id": "1226505201",
      "start_date": ""
    },
    {
      "rmk_id": "72559",
      "title": "Lernender Detailhandel (m/w/d)",
      "shift_type": "EFZ / EBA",
      "shift": "",
      "url": "job/1226503501",
      "top_job": 0,
      "area_of_activity": 323,
      "area_of_activity_title": "Filialteam",
      "workload": 56,
      "career_level": 40,
      "career_level_title": "Lernender",
      "related_jobs_data": null,
      "sys_language_uid": 0,
      "latitude": "47.4564382",
      "longitude": "7.605211",
      "city": "Duggingen",
      "address": "Liebmattstrasse 7",
      "zip": "4202",
      "jc_uid": 36190,
      "j_uid": 36190,
      "job_id": "1226503501",
      "start_date": ""
    },
    {
      "rmk_id": "72547",
      "title": "Lernender Detailhandel (m/w/d)",
      "shift_type": "EFZ / EBA",
      "shift": "",
      "url": "job/1226506101",
      "top_job": 0,
      "area_of_activity": 323,
      "area_of_activity_title": "Filialteam",
      "workload": 56,
      "career_level": 40,
      "career_level_title": "Lernender",
      "related_jobs_data": null,
      "sys_language_uid": 0,
      "latitude": "47.2230933",
      "longitude": "8.2502617",
      "city": "Ermensee",
      "address": "Luzernerstrasse 28",
      "zip": "6294",
      "jc_uid": 36191,
      "j_uid": 36191,
      "job_id": "1226506101",
      "start_date": ""
    },
    {
      "rmk_id": "72528",
      "title": "Lernender Detailhandel (m/w/d)",
      "shift_type": "EFZ / EBA",
      "shift": "",
      "url": "job/1225517801",
      "top_job": 0,
      "area_of_activity": 323,
      "area_of_activity_title": "Filialteam",
      "workload": 56,
      "career_level": 40,
      "career_level_title": "Lernender",
      "related_jobs_data": null,
      "sys_language_uid": 0,
      "latitude": "47.1703583",
      "longitude": "8.095209",
      "city": "Sursee",
      "address": "Umfahrungsstrasse 1",
      "zip": "6210",
      "jc_uid": 36192,
      "j_uid": 36192,
      "job_id": "1225517801",
      "start_date": ""
    },
    {
      "rmk_id": "72470",
      "title": "Lernender Detailhandel (m/w/d)",
      "shift_type": "EBA und EFZ",
      "shift": "",
      "url": "job/1224947001",
      "top_job": 0,
      "area_of_activity": 323,
      "area_of_activity_title": "Filialteam",
      "workload": 56,
      "career_level": 40,
      "career_level_title": "Lernender",
      "related_jobs_data": null,
      "sys_language_uid": 0,
      "latitude": "47.4781112",
      "longitude": "9.4820973",
      "city": "Rorschach",
      "address": "St. Gallerstrasse 43",
      "zip": "9400",
      "jc_uid": 36193,
      "j_uid": 36193,
      "job_id": "1224947001",
      "start_date": ""
    },
    {
      "rmk_id": "72546",
      "title": "Lernender Detailhandel (m/w/d)",
      "shift_type": "EFZ / EBA",
      "shift": "",
      "url": "job/1226506201",
      "top_job": 0,
      "area_of_activity": 323,
      "area_of_activity_title": "Filialteam",
      "workload": 56,
      "career_level": 40,
      "career_level_title": "Lernender",
      "related_jobs_data": null,
      "sys_language_uid": 0,
      "latitude": "47.0372106",
      "longitude": "8.3284956",
      "city": "Luzern",
      "address": "Schönbühl/Langensandstr. 23",
      "zip": "6005",
      "jc_uid": 36194,
      "j_uid": 36194,
      "job_id": "1226506201",
      "start_date": ""
    },
    {
      "rmk_id": "72533",
      "title": "Lernender Detailhandel (m/w/d)",
      "shift_type": "EFZ / EBA",
      "shift": "",
      "url": "job/1226501301",
      "top_job": 0,
      "area_of_activity": 323,
      "area_of_activity_title": "Filialteam",
      "workload": 56,
      "career_level": 40,
      "career_level_title": "Lernender",
      "related_jobs_data": null,
      "sys_language_uid": 0,
      "latitude": "47.18969",
      "longitude": "8.7400767",
      "city": "Feusisberg",
      "address": "Firststrasse 19",
      "zip": "8835",
      "jc_uid": 36195,
      "j_uid": 36195,
      "job_id": "1226501301",
      "start_date": ""
    },
    {
      "rmk_id": "72463",
      "title": "Lernender Detailhandel (m/w/d)",
      "shift_type": "EBA und EFZ",
      "shift": "",
      "url": "job/1224936701",
      "top_job": 0,
      "area_of_activity": 323,
      "area_of_activity_title": "Filialteam",
      "workload": 56,
      "career_level": 40,
      "career_level_title": "Lernender",
      "related_jobs_data": null,
      "sys_language_uid": 0,
      "latitude": "47.3319223",
      "longitude": "8.7924831",
      "city": "Wetzikon",
      "address": "Motorenstrasse 99",
      "zip": "8620",
      "jc_uid": 36196,
      "j_uid": 36196,
      "job_id": "1224936701",
      "start_date": ""
    },
    {
      "rmk_id": "72536",
      "title": "Lernender Detailhandel (m/w/d)",
      "shift_type": "EFZ / EBA",
      "shift": "",
      "url": "job/1226502101",
      "top_job": 0,
      "area_of_activity": 323,
      "area_of_activity_title": "Filialteam",
      "workload": 56,
      "career_level": 40,
      "career_level_title": "Lernender",
      "related_jobs_data": null,
      "sys_language_uid": 0,
      "latitude": "47.3067661",
      "longitude": "7.9257397",
      "city": "Oftringen",
      "address": "Spitalweidstrasse 1",
      "zip": "4665",
      "jc_uid": 36197,
      "j_uid": 36197,
      "job_id": "1226502101",
      "start_date": ""
    },
    {
      "rmk_id": "72500",
      "title": "Lernender Detailhandel (m/w/d)",
      "shift_type": "EBA und EFZ",
      "shift": "",
      "url": "job/1226823401",
      "top_job": 0,
      "area_of_activity": 323,
      "area_of_activity_title": "Filialteam",
      "workload": 56,
      "career_level": 40,
      "career_level_title": "Lernender",
      "related_jobs_data": null,
      "sys_language_uid": 0,
      "latitude": "47.44593",
      "longitude": "9.0521964",
      "city": "Rickenbach",
      "address": "Breitestrasse 5",
      "zip": "9532",
      "jc_uid": 36198,
      "j_uid": 36198,
      "job_id": "1226823401",
      "start_date": ""
    },
    {
      "rmk_id": "72539",
      "title": "Lernender Detailhandel (m/w/d)",
      "shift_type": "EFZ / EBA",
      "shift": "",
      "url": "job/1226502901",
      "top_job": 0,
      "area_of_activity": 323,
      "area_of_activity_title": "Filialteam",
      "workload": 56,
      "career_level": 40,
      "career_level_title": "Lernender",
      "related_jobs_data": null,
      "sys_language_uid": 0,
      "latitude": "47.3485464",
      "longitude": "7.8908869",
      "city": "Olten",
      "address": "Solothurnerstrasse 201",
      "zip": "4600",
      "jc_uid": 36199,
      "j_uid": 36199,
      "job_id": "1226502901",
      "start_date": ""
    },
    {
      "rmk_id": "72475",
      "title": "Lernender Detailhandel (m/w/d)",
      "shift_type": "EBA und EFZ",
      "shift": "",
      "url": "job/1224944201",
      "top_job": 0,
      "area_of_activity": 323,
      "area_of_activity_title": "Filialteam",
      "workload": 56,
      "career_level": 40,
      "career_level_title": "Lernender",
      "related_jobs_data": null,
      "sys_language_uid": 0,
      "latitude": "47.3587312",
      "longitude": "8.585599",
      "city": "Zürich",
      "address": "Witikonerstrasse 279",
      "zip": "8053",
      "jc_uid": 36200,
      "j_uid": 36200,
      "job_id": "1224944201",
      "start_date": ""
    },
    {
      "rmk_id": "72511",
      "title": "Lernender Detailhandel (m/w/d)",
      "shift_type": "EBA und EFZ",
      "shift": "",
      "url": "job/1225061901",
      "top_job": 0,
      "area_of_activity": 323,
      "area_of_activity_title": "Filialteam",
      "workload": 56,
      "career_level": 40,
      "career_level_title": "Lernender",
      "related_jobs_data": null,
      "sys_language_uid": 0,
      "latitude": "47.4398499",
      "longitude": "8.5703145",
      "city": "Glattbrugg",
      "address": "Balz-Zimmermannstrasse 7",
      "zip": "8152",
      "jc_uid": 36201,
      "j_uid": 36201,
      "job_id": "1225061901",
      "start_date": ""
    },
    {
      "rmk_id": "72529",
      "title": "Lernender Detailhandel (m/w/d)",
      "shift_type": "EFZ / EBA",
      "shift": "",
      "url": "job/1226295301",
      "top_job": 0,
      "area_of_activity": 323,
      "area_of_activity_title": "Filialteam",
      "workload": 56,
      "career_level": 40,
      "career_level_title": "Lernender",
      "related_jobs_data": null,
      "sys_language_uid": 0,
      "latitude": "47.3587968",
      "longitude": "7.9891375",
      "city": "Gretzenbach",
      "address": "Im Grund 18",
      "zip": "5014",
      "jc_uid": 36202,
      "j_uid": 36202,
      "job_id": "1226295301",
      "start_date": ""
    },
    {
      "rmk_id": "72722",
      "title": "Lernender Detailhandel (m/w/d)",
      "shift_type": "EBA / EFZ",
      "shift": "",
      "url": "job/1230033801",
      "top_job": 0,
      "area_of_activity": 323,
      "area_of_activity_title": "Filialteam",
      "workload": 56,
      "career_level": 40,
      "career_level_title": "Lernender",
      "related_jobs_data": null,
      "sys_language_uid": 0,
      "latitude": "47.1002734",
      "longitude": "7.5692403",
      "city": "Kirchberg",
      "address": "Industrie Neuhof 80",
      "zip": "3422",
      "jc_uid": 36203,
      "j_uid": 36203,
      "job_id": "1230033801",
      "start_date": ""
    },
    {
      "rmk_id": "72535",
      "title": "Lernender Detailhandel (m/w/d)",
      "shift_type": "EFZ / EBA",
      "shift": "",
      "url": "job/1226501601",
      "top_job": 0,
      "area_of_activity": 323,
      "area_of_activity_title": "Filialteam",
      "workload": 56,
      "career_level": 40,
      "career_level_title": "Lernender",
      "related_jobs_data": null,
      "sys_language_uid": 0,
      "latitude": "47.2623779",
      "longitude": "8.1757452",
      "city": "Reinach",
      "address": "Mattenfeldstrasse 1",
      "zip": "5734",
      "jc_uid": 36205,
      "j_uid": 36205,
      "job_id": "1226501601",
      "start_date": ""
    },
    {
      "rmk_id": "72540",
      "title": "Lernender Detailhandel (m/w/d)",
      "shift_type": "EFZ / EBA",
      "shift": "",
      "url": "job/1226507801",
      "top_job": 0,
      "area_of_activity": 323,
      "area_of_activity_title": "Filialteam",
      "workload": 56,
      "career_level": 40,
      "career_level_title": "Lernender",
      "related_jobs_data": null,
      "sys_language_uid": 0,
      "latitude": "47.3160522",
      "longitude": "8.5206423",
      "city": "Adliswil ZH",
      "address": "Soodring 36",
      "zip": "8134",
      "jc_uid": 36206,
      "j_uid": 36206,
      "job_id": "1226507801",
      "start_date": ""
    },
    {
      "rmk_id": "72544",
      "title": "Lernender Detailhandel (m/w/d)",
      "shift_type": "EFZ / EBA",
      "shift": "",
      "url": "job/1226506601",
      "top_job": 0,
      "area_of_activity": 323,
      "area_of_activity_title": "Filialteam",
      "workload": 56,
      "career_level": 40,
      "career_level_title": "Lernender",
      "related_jobs_data": null,
      "sys_language_uid": 0,
      "latitude": "47.3575",
      "longitude": "8.056",
      "city": "Oberentfelden",
      "address": "Feldstrasse 5",
      "zip": "5036",
      "jc_uid": 36207,
      "j_uid": 36207,
      "job_id": "1226506601",
      "start_date": ""
    },
    {
      "rmk_id": "72553",
      "title": "Lernender Detailhandel (m/w/d)",
      "shift_type": "EFZ / EBA",
      "shift": "",
      "url": "job/1226505101",
      "top_job": 0,
      "area_of_activity": 323,
      "area_of_activity_title": "Filialteam",
      "workload": 56,
      "career_level": 40,
      "career_level_title": "Lernender",
      "related_jobs_data": null,
      "sys_language_uid": 0,
      "latitude": "47.3855198",
      "longitude": "8.3957885",
      "city": "Dietikon",
      "address": "Bernstrasse 378",
      "zip": "8953",
      "jc_uid": 36208,
      "j_uid": 36208,
      "job_id": "1226505101",
      "start_date": ""
    },
    {
      "rmk_id": "72532",
      "title": "Lernender Detailhandel (m/w/d)",
      "shift_type": "EFZ / EBA",
      "shift": "",
      "url": "job/1226501201",
      "top_job": 0,
      "area_of_activity": 323,
      "area_of_activity_title": "Filialteam",
      "workload": 56,
      "career_level": 40,
      "career_level_title": "Lernender",
      "related_jobs_data": null,
      "sys_language_uid": 0,
      "latitude": "47.1820921",
      "longitude": "7.9824705",
      "city": "Schötz",
      "address": "Schürmatt 5",
      "zip": "6247",
      "jc_uid": 36209,
      "j_uid": 36209,
      "job_id": "1226501201",
      "start_date": ""
    },
    {
      "rmk_id": "72548",
      "title": "Lernender Detailhandel (m/w/d)",
      "shift_type": "EFZ / EBA",
      "shift": "",
      "url": "job/1226505901",
      "top_job": 0,
      "area_of_activity": 323,
      "area_of_activity_title": "Filialteam",
      "workload": 56,
      "career_level": 40,
      "career_level_title": "Lernender",
      "related_jobs_data": null,
      "sys_language_uid": 0,
      "latitude": "47.5471137",
      "longitude": "7.5467632",
      "city": "Allschwil",
      "address": "Binningerstrasse 86",
      "zip": "4123",
      "jc_uid": 36210,
      "j_uid": 36210,
      "job_id": "1226505901",
      "start_date": ""
    },
    {
      "rmk_id": "72530",
      "title": "Lernender Detailhandel (m/w/d)",
      "shift_type": "EFZ / EBA",
      "shift": "",
      "url": "job/1226494301",
      "top_job": 0,
      "area_of_activity": 323,
      "area_of_activity_title": "Filialteam",
      "workload": 56,
      "career_level": 40,
      "career_level_title": "Lernender",
      "related_jobs_data": null,
      "sys_language_uid": 0,
      "latitude": "46.88757",
      "longitude": "8.6341498",
      "city": "Altdorf",
      "address": "Flüelerstrasse 34",
      "zip": "6460",
      "jc_uid": 36211,
      "j_uid": 36211,
      "job_id": "1226494301",
      "start_date": ""
    },
    {
      "rmk_id": "72474",
      "title": "Lernender Detailhandel (m/w/d)",
      "shift_type": "EBA und EFZ",
      "shift": "",
      "url": "job/1224937601",
      "top_job": 0,
      "area_of_activity": 323,
      "area_of_activity_title": "Filialteam",
      "workload": 56,
      "career_level": 40,
      "career_level_title": "Lernender",
      "related_jobs_data": null,
      "sys_language_uid": 0,
      "latitude": "47.303379",
      "longitude": "8.7190558",
      "city": "Mönchaltorf",
      "address": "Isenrietstrasse 20",
      "zip": "8617",
      "jc_uid": 36212,
      "j_uid": 36212,
      "job_id": "1224937601",
      "start_date": ""
    },
    {
      "rmk_id": "72714",
      "title": "Lernender Detailhandel (m/w/d)",
      "shift_type": "EBA / EFZ",
      "shift": "",
      "url": "job/1230025601",
      "top_job": 0,
      "area_of_activity": 323,
      "area_of_activity_title": "Filialteam",
      "workload": 56,
      "career_level": 40,
      "career_level_title": "Lernender",
      "related_jobs_data": null,
      "sys_language_uid": 0,
      "latitude": "46.8919575",
      "longitude": "7.5095419",
      "city": "Belp",
      "address": "Viehweidstrasse 3",
      "zip": "3123",
      "jc_uid": 36213,
      "j_uid": 36213,
      "job_id": "1230025601",
      "start_date": ""
    },
    {
      "rmk_id": "72506",
      "title": "Lernender Detailhandel (m/w/d)",
      "shift_type": "EBA und EFZ",
      "shift": "",
      "url": "job/1225057101",
      "top_job": 0,
      "area_of_activity": 323,
      "area_of_activity_title": "Filialteam",
      "workload": 56,
      "career_level": 40,
      "career_level_title": "Lernender",
      "related_jobs_data": null,
      "sys_language_uid": 0,
      "latitude": "47.5109505",
      "longitude": "8.7595695",
      "city": "Winterthur",
      "address": "Guggenbühlstrasse 6",
      "zip": "8404",
      "jc_uid": 36215,
      "j_uid": 36215,
      "job_id": "1225057101",
      "start_date": ""
    },
    {
      "rmk_id": "72718",
      "title": "Lernender Detailhandel (m/w/d)",
      "shift_type": "EBA / EFZ",
      "shift": "",
      "url": "job/1230033001",
      "top_job": 0,
      "area_of_activity": 323,
      "area_of_activity_title": "Filialteam",
      "workload": 56,
      "career_level": 40,
      "career_level_title": "Lernender",
      "related_jobs_data": null,
      "sys_language_uid": 0,
      "latitude": "47.2163713",
      "longitude": "7.5132627",
      "city": "Langendorf",
      "address": "Bellacherstrasse 4",
      "zip": "4513",
      "jc_uid": 36216,
      "j_uid": 36216,
      "job_id": "1230033001",
      "start_date": ""
    },
    {
      "rmk_id": "72473",
      "title": "Lernender Detailhandel (m/w/d)",
      "shift_type": "EBA und EFZ",
      "shift": "",
      "url": "job/1224942601",
      "top_job": 0,
      "area_of_activity": 323,
      "area_of_activity_title": "Filialteam",
      "workload": 56,
      "career_level": 40,
      "career_level_title": "Lernender",
      "related_jobs_data": null,
      "sys_language_uid": 0,
      "latitude": "47.3325415",
      "longitude": "8.623476",
      "city": "Zumikon",
      "address": "Dorfplatz 14",
      "zip": "8126",
      "jc_uid": 36217,
      "j_uid": 36217,
      "job_id": "1224942601",
      "start_date": ""
    },
    {
      "rmk_id": "72541",
      "title": "Lernender Detailhandel (m/w/d)",
      "shift_type": "EFZ / EBA",
      "shift": "",
      "url": "job/1226507501",
      "top_job": 0,
      "area_of_activity": 323,
      "area_of_activity_title": "Filialteam",
      "workload": 56,
      "career_level": 40,
      "career_level_title": "Lernender",
      "related_jobs_data": null,
      "sys_language_uid": 0,
      "latitude": "47.4793857",
      "longitude": "7.5962563",
      "city": "Aesch",
      "address": "Arlesheimerstrasse 11",
      "zip": "4147",
      "jc_uid": 36220,
      "j_uid": 36220,
      "job_id": "1226507501",
      "start_date": ""
    },
    {
      "rmk_id": "72557",
      "title": "Lernender Detailhandel (m/w/d)",
      "shift_type": "EFZ / EBA",
      "shift": "",
      "url": "job/1226504301",
      "top_job": 0,
      "area_of_activity": 323,
      "area_of_activity_title": "Filialteam",
      "workload": 56,
      "career_level": 40,
      "career_level_title": "Lernender",
      "related_jobs_data": null,
      "sys_language_uid": 0,
      "latitude": "47.3141403",
      "longitude": "8.5185325",
      "city": "Adliswil",
      "address": "Dietlimoosplatz 1",
      "zip": "8134",
      "jc_uid": 36221,
      "j_uid": 36221,
      "job_id": "1226504301",
      "start_date": ""
    },
    {
      "rmk_id": "72542",
      "title": "Lernender Detailhandel (m/w/d)",
      "shift_type": "EFZ / EBA",
      "shift": "",
      "url": "job/1226507101",
      "top_job": 0,
      "area_of_activity": 323,
      "area_of_activity_title": "Filialteam",
      "workload": 56,
      "career_level": 40,
      "career_level_title": "Lernender",
      "related_jobs_data": null,
      "sys_language_uid": 0,
      "latitude": "47.1005278",
      "longitude": "8.2680697",
      "city": "Rothenburg",
      "address": "Bertiswilstrasse 42",
      "zip": "6023",
      "jc_uid": 36222,
      "j_uid": 36222,
      "job_id": "1226507101",
      "start_date": ""
    },
    {
      "rmk_id": "72560",
      "title": "Lernender Detailhandel (m/w/d)",
      "shift_type": "EFZ / EBA",
      "shift": "",
      "url": "job/1226503201",
      "top_job": 0,
      "area_of_activity": 323,
      "area_of_activity_title": "Filialteam",
      "workload": 56,
      "career_level": 40,
      "career_level_title": "Lernender",
      "related_jobs_data": null,
      "sys_language_uid": 0,
      "latitude": "47.4385484",
      "longitude": "8.2912955",
      "city": "Fislisbach",
      "address": "Birmenstorferstrasse 1",
      "zip": "5442",
      "jc_uid": 36223,
      "j_uid": 36223,
      "job_id": "1226503201",
      "start_date": ""
    },
    {
      "rmk_id": "72551",
      "title": "Lernender Detailhandel (m/w/d)",
      "shift_type": "EFZ / EBA",
      "shift": "",
      "url": "job/1226505301",
      "top_job": 0,
      "area_of_activity": 323,
      "area_of_activity_title": "Filialteam",
      "workload": 56,
      "career_level": 40,
      "career_level_title": "Lernender",
      "related_jobs_data": null,
      "sys_language_uid": 0,
      "latitude": "47.5403814",
      "longitude": "7.597759",
      "city": "Basel",
      "address": "Dornacherstrasse 258",
      "zip": "4053",
      "jc_uid": 36224,
      "j_uid": 36224,
      "job_id": "1226505301",
      "start_date": ""
    },
    {
      "rmk_id": "72545",
      "title": "Lernender Detailhandel (m/w/d)",
      "shift_type": "EFZ / EBA",
      "shift": "",
      "url": "job/1226506401",
      "top_job": 0,
      "area_of_activity": 323,
      "area_of_activity_title": "Filialteam",
      "workload": 56,
      "career_level": 40,
      "career_level_title": "Lernender",
      "related_jobs_data": null,
      "sys_language_uid": 0,
      "latitude": "47.1166961",
      "longitude": "8.1999677",
      "city": "Sempach Station",
      "address": "Mettenwilstrasse 10",
      "zip": "6203",
      "jc_uid": 36225,
      "j_uid": 36225,
      "job_id": "1226506401",
      "start_date": ""
    },
    {
      "rmk_id": "72534",
      "title": "Lernender Detailhandel (m/w/d)",
      "shift_type": "EFZ / EBA",
      "shift": "",
      "url": "job/1226501401",
      "top_job": 0,
      "area_of_activity": 323,
      "area_of_activity_title": "Filialteam",
      "workload": 56,
      "career_level": 40,
      "career_level_title": "Lernender",
      "related_jobs_data": null,
      "sys_language_uid": 0,
      "latitude": "47.1873967",
      "longitude": "8.4752567",
      "city": "Cham",
      "address": "Alte Steinhauserstrasse 10",
      "zip": "6330",
      "jc_uid": 36226,
      "j_uid": 36226,
      "job_id": "1226501401",
      "start_date": ""
    },
    {
      "rmk_id": "72554",
      "title": "Lernender Detailhandel (m/w/d)",
      "shift_type": "EFZ / EBA",
      "shift": "",
      "url": "job/1226504901",
      "top_job": 0,
      "area_of_activity": 323,
      "area_of_activity_title": "Filialteam",
      "workload": 56,
      "career_level": 40,
      "career_level_title": "Lernender",
      "related_jobs_data": null,
      "sys_language_uid": 0,
      "latitude": "47.4029718",
      "longitude": "8.406057",
      "city": "Dietikon",
      "address": "Zürcherstrasse 55",
      "zip": "8953",
      "jc_uid": 36227,
      "j_uid": 36227,
      "job_id": "1226504901",
      "start_date": ""
    },
    {
      "rmk_id": "72531",
      "title": "Lernender Detailhandel (m/w/d)",
      "shift_type": "EFZ / EBA",
      "shift": "",
      "url": "job/1226500801",
      "top_job": 0,
      "area_of_activity": 323,
      "area_of_activity_title": "Filialteam",
      "workload": 56,
      "career_level": 40,
      "career_level_title": "Lernender",
      "related_jobs_data": null,
      "sys_language_uid": 0,
      "latitude": "47.1315415",
      "longitude": "8.4031098",
      "city": "Honau",
      "address": "Gwärbstrasse 4",
      "zip": "6038",
      "jc_uid": 36228,
      "j_uid": 36228,
      "job_id": "1226500801",
      "start_date": ""
    },
    {
      "rmk_id": "72468",
      "title": "Lernender Detailhandel (m/w/d)",
      "shift_type": "EBA und EFZ",
      "shift": "",
      "url": "job/1224936201",
      "top_job": 0,
      "area_of_activity": 323,
      "area_of_activity_title": "Filialteam",
      "workload": 56,
      "career_level": 40,
      "career_level_title": "Lernender",
      "related_jobs_data": null,
      "sys_language_uid": 0,
      "latitude": "47.5056186",
      "longitude": "8.5403774",
      "city": "Bachenbülach",
      "address": "Grabenstrasse 5",
      "zip": "8184",
      "jc_uid": 36230,
      "j_uid": 36230,
      "job_id": "1224936201",
      "start_date": ""
    },
    {
      "rmk_id": "72462",
      "title": "Lernender Detailhandel (m/w/d)",
      "shift_type": "EBA und EFZ",
      "shift": "",
      "url": "job/1224941401",
      "top_job": 0,
      "area_of_activity": 323,
      "area_of_activity_title": "Filialteam",
      "workload": 56,
      "career_level": 40,
      "career_level_title": "Lernender",
      "related_jobs_data": null,
      "sys_language_uid": 0,
      "latitude": "47.3873327",
      "longitude": "9.2742395",
      "city": "Herisau",
      "address": "Cilanderstrasse 10",
      "zip": "9100",
      "jc_uid": 36232,
      "j_uid": 36232,
      "job_id": "1224941401",
      "start_date": ""
    },
    {
      "rmk_id": "72721",
      "title": "Lernender Detailhandel (m/w/d)",
      "shift_type": "EBA / EFZ",
      "shift": "",
      "url": "job/1230021801",
      "top_job": 0,
      "area_of_activity": 323,
      "area_of_activity_title": "Filialteam",
      "workload": 63,
      "career_level": 40,
      "career_level_title": "Lernender",
      "related_jobs_data": null,
      "sys_language_uid": 0,
      "latitude": "46.6886774",
      "longitude": "7.8781041",
      "city": "Interlaken",
      "address": "Lindenallee 106",
      "zip": "3800",
      "jc_uid": 36233,
      "j_uid": 36233,
      "job_id": "1230021801",
      "start_date": ""
    },
    {
      "rmk_id": "72538",
      "title": "Lernender Detailhandel (m/w/d)",
      "shift_type": "EFZ / EBA",
      "shift": "",
      "url": "job/1226502801",
      "top_job": 0,
      "area_of_activity": 323,
      "area_of_activity_title": "Filialteam",
      "workload": 56,
      "career_level": 40,
      "career_level_title": "Lernender",
      "related_jobs_data": null,
      "sys_language_uid": 0,
      "latitude": "47.0243929",
      "longitude": "8.2946674",
      "city": "Kriens",
      "address": "Ringcenter/Ringstrasse 27",
      "zip": "6010",
      "jc_uid": 36234,
      "j_uid": 36234,
      "job_id": "1226502801",
      "start_date": ""
    },
    {
      "rmk_id": "72543",
      "title": "Lernender Detailhandel (m/w/d)",
      "shift_type": "EFZ / EBA",
      "shift": "",
      "url": "job/1226506901",
      "top_job": 0,
      "area_of_activity": 323,
      "area_of_activity_title": "Filialteam",
      "workload": 56,
      "career_level": 40,
      "career_level_title": "Lernender",
      "related_jobs_data": null,
      "sys_language_uid": 0,
      "latitude": "47.2128166",
      "longitude": "7.7868336",
      "city": "Langenthal",
      "address": "Brauihof 22",
      "zip": "4900",
      "jc_uid": 36235,
      "j_uid": 36235,
      "job_id": "1226506901",
      "start_date": ""
    },
    {
      "rmk_id": "72537",
      "title": "Lernender Detailhandel (m/w/d)",
      "shift_type": "EFZ / EBA",
      "shift": "",
      "url": "job/1226502401",
      "top_job": 0,
      "area_of_activity": 323,
      "area_of_activity_title": "Filialteam",
      "workload": 56,
      "career_level": 40,
      "career_level_title": "Lernender",
      "related_jobs_data": null,
      "sys_language_uid": 0,
      "latitude": "47.0708342",
      "longitude": "8.284204",
      "city": "Emmenbrücke",
      "address": "Seetalstrasse 11",
      "zip": "6020",
      "jc_uid": 36236,
      "j_uid": 36236,
      "job_id": "1226502401",
      "start_date": ""
    },
    {
      "rmk_id": "72720",
      "title": "Lernender Detailhandel (m/w/d)",
      "shift_type": "EBA / EFZ",
      "shift": "",
      "url": "job/1230021001",
      "top_job": 0,
      "area_of_activity": 323,
      "area_of_activity_title": "Filialteam",
      "workload": 56,
      "career_level": 40,
      "career_level_title": "Lernender",
      "related_jobs_data": null,
      "sys_language_uid": 0,
      "latitude": "46.9632764",
      "longitude": "7.4817438",
      "city": "Ostermundigen",
      "address": "Milchstrasse 2-8",
      "zip": "3072",
      "jc_uid": 36237,
      "j_uid": 36237,
      "job_id": "1230021001",
      "start_date": ""
    },
    {
      "rmk_id": "72491",
      "title": "Lernender Detailhandel (m/w/d)",
      "shift_type": "EFZ / EBA",
      "shift": "",
      "url": "job/1224866101",
      "top_job": 0,
      "area_of_activity": 323,
      "area_of_activity_title": "Filialteam",
      "workload": 56,
      "career_level": 40,
      "career_level_title": "Lernender",
      "related_jobs_data": null,
      "sys_language_uid": 0,
      "latitude": "47.4890921",
      "longitude": "8.2441345",
      "city": "Gebenstorf",
      "address": "Wambisterstrasse 5",
      "zip": "5412",
      "jc_uid": 36238,
      "j_uid": 36238,
      "job_id": "1224866101",
      "start_date": ""
    },
    {
      "rmk_id": "72556",
      "title": "Lernender Detailhandel (m/w/d)",
      "shift_type": "EFZ / EBA",
      "shift": "",
      "url": "job/1226504501",
      "top_job": 0,
      "area_of_activity": 323,
      "area_of_activity_title": "Filialteam",
      "workload": 56,
      "career_level": 40,
      "career_level_title": "Lernender",
      "related_jobs_data": null,
      "sys_language_uid": 0,
      "latitude": "47.1858061",
      "longitude": "8.4556615",
      "city": "Cham II",
      "address": "Obermühleweid 1",
      "zip": "6330",
      "jc_uid": 36239,
      "j_uid": 36239,
      "job_id": "1226504501",
      "start_date": ""
    },
    {
      "rmk_id": "72558",
      "title": "Lernender Detailhandel (m/w/d)",
      "shift_type": "EFZ / EBA",
      "shift": "",
      "url": "job/1226503901",
      "top_job": 0,
      "area_of_activity": 323,
      "area_of_activity_title": "Filialteam",
      "workload": 56,
      "career_level": 40,
      "career_level_title": "Lernender",
      "related_jobs_data": null,
      "sys_language_uid": 0,
      "latitude": "47.4613849",
      "longitude": "7.7399641",
      "city": "Bubendorf",
      "address": "Kantonsstrasse 7",
      "zip": "4416",
      "jc_uid": 36240,
      "j_uid": 36240,
      "job_id": "1226503901",
      "start_date": ""
    },
    {
      "rmk_id": "72515",
      "title": "Lernender Detailhandel (m/w/d)",
      "shift_type": "EBA und EFZ",
      "shift": "",
      "url": "job/1226824201",
      "top_job": 0,
      "area_of_activity": 323,
      "area_of_activity_title": "Filialteam",
      "workload": 56,
      "career_level": 40,
      "career_level_title": "Lernender",
      "related_jobs_data": null,
      "sys_language_uid": 0,
      "latitude": "47.366789",
      "longitude": "8.5480012",
      "city": "Zürich",
      "address": "Stadelhoferstrasse 10",
      "zip": "8001",
      "jc_uid": 36241,
      "j_uid": 36241,
      "job_id": "1226824201",
      "start_date": ""
    },
    {
      "rmk_id": "72505",
      "title": "Lernender Detailhandel (m/w/d)",
      "shift_type": "EBA und EFZ",
      "shift": "",
      "url": "job/1226131301",
      "top_job": 0,
      "area_of_activity": 323,
      "area_of_activity_title": "Filialteam",
      "workload": 56,
      "career_level": 40,
      "career_level_title": "Lernender",
      "related_jobs_data": null,
      "sys_language_uid": 0,
      "latitude": "47.3737269",
      "longitude": "8.5376525",
      "city": "Zürich",
      "address": "Sihlstrasse 3",
      "zip": "8001",
      "jc_uid": 36242,
      "j_uid": 36242,
      "job_id": "1226131301",
      "start_date": ""
    },
    {
      "rmk_id": "72730",
      "title": "Lernender Detailhandel (m/w/d)",
      "shift_type": "EBA / EFZ",
      "shift": "",
      "url": "job/1230039301",
      "top_job": 0,
      "area_of_activity": 323,
      "area_of_activity_title": "Filialteam",
      "workload": 56,
      "career_level": 40,
      "career_level_title": "Lernender",
      "related_jobs_data": null,
      "sys_language_uid": 0,
      "latitude": "47.1707058",
      "longitude": "7.5671565",
      "city": "Gerlafingen",
      "address": "Bahnhofstrasse 8",
      "zip": "4563",
      "jc_uid": 36243,
      "j_uid": 36243,
      "job_id": "1230039301",
      "start_date": ""
    },
    {
      "rmk_id": "72555",
      "title": "Lernender Detailhandel (m/w/d)",
      "shift_type": "EFZ / EBA",
      "shift": "",
      "url": "job/1226504701",
      "top_job": 0,
      "area_of_activity": 323,
      "area_of_activity_title": "Filialteam",
      "workload": 56,
      "career_level": 40,
      "career_level_title": "Lernender",
      "related_jobs_data": null,
      "sys_language_uid": 0,
      "latitude": "46.9672905",
      "longitude": "8.354314",
      "city": "Stans",
      "address": "Hansmatt 13a",
      "zip": "6370",
      "jc_uid": 36244,
      "j_uid": 36244,
      "job_id": "1226504701",
      "start_date": ""
    },
    {
      "rmk_id": "72549",
      "title": "Lernender Detailhandel (m/w/d)",
      "shift_type": "EFZ / EBA",
      "shift": "",
      "url": "job/1226505801",
      "top_job": 0,
      "area_of_activity": 323,
      "area_of_activity_title": "Filialteam",
      "workload": 56,
      "career_level": 40,
      "career_level_title": "Lernender",
      "related_jobs_data": null,
      "sys_language_uid": 0,
      "latitude": "47.3497826",
      "longitude": "8.2586675",
      "city": "Villmergen",
      "address": "Grenzweg 3",
      "zip": "5612",
      "jc_uid": 36245,
      "j_uid": 36245,
      "job_id": "1226505801",
      "start_date": ""
    },
    {
      "rmk_id": "72514",
      "title": "Lernender Detailhandel (m/w/d)",
      "shift_type": "EBA und EFZ",
      "shift": "",
      "url": "job/1225073801",
      "top_job": 0,
      "area_of_activity": 323,
      "area_of_activity_title": "Filialteam",
      "workload": 56,
      "career_level": 40,
      "career_level_title": "Lernender",
      "related_jobs_data": null,
      "sys_language_uid": 0,
      "latitude": "47.441737",
      "longitude": "8.8339189",
      "city": "Turbenthal",
      "address": "Tösstalstrasse 11",
      "zip": "8488",
      "jc_uid": 36249,
      "j_uid": 36249,
      "job_id": "1225073801",
      "start_date": ""
    },
    {
      "rmk_id": "72715",
      "title": "Lernender Detailhandel (m/w/d)",
      "shift_type": "EBA / EFZ",
      "shift": "",
      "url": "job/1230025801",
      "top_job": 0,
      "area_of_activity": 323,
      "area_of_activity_title": "Filialteam",
      "workload": 56,
      "career_level": 40,
      "career_level_title": "Lernender",
      "related_jobs_data": null,
      "sys_language_uid": 0,
      "latitude": "46.9225226",
      "longitude": "7.4149968",
      "city": "Köniz",
      "address": "Stapfenstrasse 4",
      "zip": "3098",
      "jc_uid": 36250,
      "j_uid": 36250,
      "job_id": "1230025801",
      "start_date": ""
    },
    {
      "rmk_id": "72716",
      "title": "Lernender Detailhandel (m/w/d)",
      "shift_type": "EBA / EFZ",
      "shift": "",
      "url": "job/1230031701",
      "top_job": 0,
      "area_of_activity": 323,
      "area_of_activity_title": "Filialteam",
      "workload": 56,
      "career_level": 40,
      "career_level_title": "Lernender",
      "related_jobs_data": null,
      "sys_language_uid": 0,
      "latitude": "47.1929846",
      "longitude": "7.4070959",
      "city": "Grenchen",
      "address": "Leuzigenstrasse 4",
      "zip": "2540",
      "jc_uid": 36251,
      "j_uid": 36251,
      "job_id": "1230031701",
      "start_date": ""
    },
    {
      "rmk_id": "72723",
      "title": "Lernender Detailhandel (m/w/d)",
      "shift_type": "EBA / EFZ",
      "shift": "",
      "url": "job/1230032401",
      "top_job": 0,
      "area_of_activity": 323,
      "area_of_activity_title": "Filialteam",
      "workload": 56,
      "career_level": 40,
      "career_level_title": "Lernender",
      "related_jobs_data": null,
      "sys_language_uid": 0,
      "latitude": "46.859324",
      "longitude": "7.2003849",
      "city": "Düdingen",
      "address": "Murtenstrasse 39",
      "zip": "3186",
      "jc_uid": 36252,
      "j_uid": 36252,
      "job_id": "1230032401",
      "start_date": ""
    },
    {
      "rmk_id": "72712",
      "title": "Lernender Detailhandel (m/w/d)",
      "shift_type": "EBA / EFZ",
      "shift": "",
      "url": "job/1230024801",
      "top_job": 0,
      "area_of_activity": 323,
      "area_of_activity_title": "Filialteam",
      "workload": 56,
      "career_level": 40,
      "career_level_title": "Lernender",
      "related_jobs_data": null,
      "sys_language_uid": 0,
      "latitude": "46.9259832",
      "longitude": "7.5624486",
      "city": "Worb",
      "address": "Bernstrasse 46",
      "zip": "3076",
      "jc_uid": 36255,
      "j_uid": 36255,
      "job_id": "1230024801",
      "start_date": ""
    },
    {
      "rmk_id": "64535",
      "title": "Mitarbeiter Verkauf (m/w/d)",
      "shift_type": "40 - 80%",
      "shift": "40 - 80%",
      "url": "job/1034819401",
      "top_job": 0,
      "area_of_activity": 323,
      "area_of_activity_title": "Filialteam",
      "workload": 59,
      "career_level": 55,
      "career_level_title": "Berufseinsteiger/Berufserfahrener",
      "related_jobs_data": null,
      "sys_language_uid": 0,
      "latitude": "46.8466106",
      "longitude": "9.5218967",
      "city": "Chur",
      "address": "Kasernenstrasse 53",
      "zip": "7000",
      "jc_uid": 29064,
      "j_uid": 29064,
      "job_id": "1034819401",
      "start_date": ""
    },
    {
      "rmk_id": "64846",
      "title": "Mitarbeiter Verkauf (m/w/d)",
      "shift_type": "40 - 80%",
      "shift": "40 - 80%",
      "url": "job/1044402601",
      "top_job": 0,
      "area_of_activity": 323,
      "area_of_activity_title": "Filialteam",
      "workload": 59,
      "career_level": 55,
      "career_level_title": "Berufseinsteiger/Berufserfahrener",
      "related_jobs_data": null,
      "sys_language_uid": 0,
      "latitude": "47.5041075",
      "longitude": "7.5541765",
      "city": "Therwil",
      "address": "Oberwilerstrasse 40",
      "zip": "4106",
      "jc_uid": 29322,
      "j_uid": 29322,
      "job_id": "1044402601",
      "start_date": ""
    },
    {
      "rmk_id": "65721",
      "title": "Mitarbeiter Verkauf (m/w/d)",
      "shift_type": "50 - 70%",
      "shift": "50 - 70%",
      "url": "job/1068300401",
      "top_job": 0,
      "area_of_activity": 323,
      "area_of_activity_title": "Filialteam",
      "workload": 59,
      "career_level": 55,
      "career_level_title": "Berufseinsteiger/Berufserfahrener",
      "related_jobs_data": null,
      "sys_language_uid": 0,
      "latitude": "47.5007133",
      "longitude": "7.7215874",
      "city": "Frenkendorf",
      "address": "Parkstrasse 2",
      "zip": "4402",
      "jc_uid": 30102,
      "j_uid": 30102,
      "job_id": "1068300401",
      "start_date": ""
    },
    {
      "rmk_id": "65736",
      "title": "Mitarbeiter Verkauf (m/w/d)",
      "shift_type": "40 - 70%",
      "shift": "40 - 70%",
      "url": "job/1068423001",
      "top_job": 0,
      "area_of_activity": 323,
      "area_of_activity_title": "Filialteam",
      "workload": 63,
      "career_level": 55,
      "career_level_title": "Berufseinsteiger/Berufserfahrener",
      "related_jobs_data": null,
      "sys_language_uid": 0,
      "latitude": "47.4564382",
      "longitude": "7.605211",
      "city": "Duggingen",
      "address": "Liebmattstrasse 7",
      "zip": "4202",
      "jc_uid": 30115,
      "j_uid": 30115,
      "job_id": "1068423001",
      "start_date": ""
    },
    {
      "rmk_id": "66153",
      "title": "Mitarbeiter Verkauf (m/w/d)",
      "shift_type": "50 - 70%",
      "shift": "50 - 70%",
      "url": "job/1076961301",
      "top_job": 0,
      "area_of_activity": 323,
      "area_of_activity_title": "Filialteam",
      "workload": 59,
      "career_level": 55,
      "career_level_title": "Berufseinsteiger/Berufserfahrener",
      "related_jobs_data": null,
      "sys_language_uid": 0,
      "latitude": "47.4793857",
      "longitude": "7.5962563",
      "city": "Aesch",
      "address": "Arlesheimerstrasse 11",
      "zip": "4147",
      "jc_uid": 30489,
      "j_uid": 30489,
      "job_id": "1076961301",
      "start_date": ""
    },
    {
      "rmk_id": "66402",
      "title": "Mitarbeiter Verkauf (m/w/d)",
      "shift_type": "50 - 70%",
      "shift": "50 - 70%",
      "url": "job/1081606301",
      "top_job": 0,
      "area_of_activity": 323,
      "area_of_activity_title": "Filialteam",
      "workload": 63,
      "career_level": 55,
      "career_level_title": "Berufseinsteiger/Berufserfahrener",
      "related_jobs_data": null,
      "sys_language_uid": 0,
      "latitude": "47.4613849",
      "longitude": "7.7399641",
      "city": "Bubendorf",
      "address": "Kantonsstrasse 7",
      "zip": "4416",
      "jc_uid": 30691,
      "j_uid": 30691,
      "job_id": "1081606301",
      "start_date": ""
    },
    {
      "rmk_id": "67588",
      "title": "Mitarbeiter Verkauf (m/w/d)",
      "shift_type": "40 - 80%",
      "shift": "40 - 80%",
      "url": "job/1113785701",
      "top_job": 0,
      "area_of_activity": 323,
      "area_of_activity_title": "Filialteam",
      "workload": 59,
      "career_level": 55,
      "career_level_title": "Berufseinsteiger/Berufserfahrener",
      "related_jobs_data": null,
      "sys_language_uid": 0,
      "latitude": "47.4781112",
      "longitude": "9.4820973",
      "city": "Rorschach",
      "address": "St. Gallerstrasse 43",
      "zip": "9400",
      "jc_uid": 31741,
      "j_uid": 31741,
      "job_id": "1113785701",
      "start_date": ""
    },
    {
      "rmk_id": "67846",
      "title": "Mitarbeiter Verkauf (m/w/d)",
      "shift_type": "40 - 60%",
      "shift": "40 - 60%",
      "url": "job/1121707901",
      "top_job": 0,
      "area_of_activity": 323,
      "area_of_activity_title": "Filialteam",
      "workload": 59,
      "career_level": 55,
      "career_level_title": "Berufseinsteiger/Berufserfahrener",
      "related_jobs_data": null,
      "sys_language_uid": 0,
      "latitude": "47.461184",
      "longitude": "9.3957062",
      "city": "Wittenbach",
      "address": "Arbonerstrasse 6",
      "zip": "9300",
      "jc_uid": 31967,
      "j_uid": 31967,
      "job_id": "1121707901",
      "start_date": ""
    },
    {
      "rmk_id": "70213",
      "title": "Mitarbeiter Verkauf (m/w/d)",
      "shift_type": "70 - 100%",
      "shift": "70 - 100%",
      "url": "job/1170973301",
      "top_job": 0,
      "area_of_activity": 323,
      "area_of_activity_title": "Filialteam",
      "workload": 63,
      "career_level": 55,
      "career_level_title": "Berufseinsteiger/Berufserfahrener",
      "related_jobs_data": null,
      "sys_language_uid": 0,
      "latitude": "47.4434238",
      "longitude": "9.4168848",
      "city": "St. Gallen",
      "address": "Lerchentalstrasse 14",
      "zip": "9016",
      "jc_uid": 34026,
      "j_uid": 34026,
      "job_id": "1170973301",
      "start_date": ""
    },
    {
      "rmk_id": "70281",
      "title": "Mitarbeiter Verkauf (m/w/d)",
      "shift_type": "40 - 70%",
      "shift": "40 - 70%",
      "url": "job/1172768901",
      "top_job": 0,
      "area_of_activity": 323,
      "area_of_activity_title": "Filialteam",
      "workload": 59,
      "career_level": 55,
      "career_level_title": "Berufseinsteiger/Berufserfahrener",
      "related_jobs_data": null,
      "sys_language_uid": 0,
      "latitude": "47.1333351",
      "longitude": "7.2418164",
      "city": "Biel",
      "address": "Bahnhofplatz 2A",
      "zip": "2502",
      "jc_uid": 34082,
      "j_uid": 34082,
      "job_id": "1172768901",
      "start_date": ""
    },
    {
      "rmk_id": "70420",
      "title": "Mitarbeiter Verkauf (m/w/d)",
      "shift_type": "50 - 80%",
      "shift": "50 - 80%",
      "url": "job/1176185601",
      "top_job": 0,
      "area_of_activity": 323,
      "area_of_activity_title": "Filialteam",
      "workload": 59,
      "career_level": 55,
      "career_level_title": "Berufseinsteiger/Berufserfahrener",
      "related_jobs_data": null,
      "sys_language_uid": 0,
      "latitude": "47.568474",
      "longitude": "9.0957319",
      "city": "Weinfelden",
      "address": "Weststrasse 22",
      "zip": "8570",
      "jc_uid": 34200,
      "j_uid": 34200,
      "job_id": "1176185601",
      "start_date": ""
    },
    {
      "rmk_id": "70421",
      "title": "Mitarbeiter Verkauf (m/w/d)",
      "shift_type": "50 - 60%",
      "shift": "50 - 60%",
      "url": "job/1176201401",
      "top_job": 0,
      "area_of_activity": 323,
      "area_of_activity_title": "Filialteam",
      "workload": 59,
      "career_level": 55,
      "career_level_title": "Berufseinsteiger/Berufserfahrener",
      "related_jobs_data": null,
      "sys_language_uid": 0,
      "latitude": "47.0414023",
      "longitude": "9.0704776",
      "city": "Glarus",
      "address": "Schweizerhofstrasse 14",
      "zip": "8750",
      "jc_uid": 34201,
      "j_uid": 34201,
      "job_id": "1176201401",
      "start_date": ""
    },
    {
      "rmk_id": "71201",
      "title": "Mitarbeiter Verkauf (m/w/d)",
      "shift_type": "50 - 60%",
      "shift": "50 - 60%",
      "url": "job/1194033201",
      "top_job": 0,
      "area_of_activity": 323,
      "area_of_activity_title": "Filialteam",
      "workload": 59,
      "career_level": 55,
      "career_level_title": "Berufseinsteiger/Berufserfahrener",
      "related_jobs_data": null,
      "sys_language_uid": 0,
      "latitude": "47.2163713",
      "longitude": "7.5132627",
      "city": "Langendorf",
      "address": "Bellacherstrasse 4",
      "zip": "4513",
      "jc_uid": 34895,
      "j_uid": 34895,
      "job_id": "1194033201",
      "start_date": ""
    },
    {
      "rmk_id": "71272",
      "title": "Mitarbeiter Verkauf (m/w/d)",
      "shift_type": "40 - 70%",
      "shift": "40 - 70%",
      "url": "job/1195817701",
      "top_job": 0,
      "area_of_activity": 323,
      "area_of_activity_title": "Filialteam",
      "workload": 59,
      "career_level": 55,
      "career_level_title": "Berufseinsteiger/Berufserfahrener",
      "related_jobs_data": null,
      "sys_language_uid": 0,
      "latitude": "47.4746937",
      "longitude": "7.7511524",
      "city": "Lausen",
      "address": "Hauptstrasse 8",
      "zip": "4415",
      "jc_uid": 34969,
      "j_uid": 34969,
      "job_id": "1195817701",
      "start_date": ""
    },
    {
      "rmk_id": "71338",
      "title": "Mitarbeiter Verkauf (m/w/d)",
      "shift_type": "40 - 80%",
      "shift": "40 - 80%",
      "url": "job/1197810101",
      "top_job": 0,
      "area_of_activity": 323,
      "area_of_activity_title": "Filialteam",
      "workload": 59,
      "career_level": 55,
      "career_level_title": "Berufseinsteiger/Berufserfahrener",
      "related_jobs_data": null,
      "sys_language_uid": 0,
      "latitude": "47.3587312",
      "longitude": "8.585599",
      "city": "Zürich",
      "address": "Witikonerstrasse 279",
      "zip": "8053",
      "jc_uid": 35037,
      "j_uid": 35037,
      "job_id": "1197810101",
      "start_date": ""
    },
    {
      "rmk_id": "71341",
      "title": "Mitarbeiter Verkauf (m/w/d)",
      "shift_type": "50 - 60%",
      "shift": "50 - 60%",
      "url": "job/1197824701",
      "top_job": 0,
      "area_of_activity": 323,
      "area_of_activity_title": "Filialteam",
      "workload": 59,
      "career_level": 55,
      "career_level_title": "Berufseinsteiger/Berufserfahrener",
      "related_jobs_data": null,
      "sys_language_uid": 0,
      "latitude": "47.0762992",
      "longitude": "7.3076728",
      "city": "Lyss",
      "address": "Bürenstrasse 9",
      "zip": "3250",
      "jc_uid": 35040,
      "j_uid": 35040,
      "job_id": "1197824701",
      "start_date": ""
    },
    {
      "rmk_id": "71520",
      "title": "Mitarbeiter Verkauf (m/w/d)",
      "shift_type": "50%",
      "shift": "50%",
      "url": "job/1203294701",
      "top_job": 0,
      "area_of_activity": 323,
      "area_of_activity_title": "Filialteam",
      "workload": 59,
      "career_level": 55,
      "career_level_title": "Berufseinsteiger/Berufserfahrener",
      "related_jobs_data": null,
      "sys_language_uid": 0,
      "latitude": "46.3152258",
      "longitude": "7.9834124",
      "city": "Brig-Glis",
      "address": "Glismattenstrasse 20",
      "zip": "3902",
      "jc_uid": 35187,
      "j_uid": 35187,
      "job_id": "1203294701",
      "start_date": ""
    },
    {
      "rmk_id": "71653",
      "title": "Mitarbeiter Verkauf (m/w/d)",
      "shift_type": "50 - 80%",
      "shift": "50 - 80%",
      "url": "job/1206315601",
      "top_job": 0,
      "area_of_activity": 323,
      "area_of_activity_title": "Filialteam",
      "workload": 63,
      "career_level": 55,
      "career_level_title": "Berufseinsteiger/Berufserfahrener",
      "related_jobs_data": null,
      "sys_language_uid": 0,
      "latitude": "47.2608669",
      "longitude": "8.8395889",
      "city": "Rüti",
      "address": "Spitalstrasse 60",
      "zip": "8630",
      "jc_uid": 35299,
      "j_uid": 35299,
      "job_id": "1206315601",
      "start_date": ""
    },
    {
      "rmk_id": "71673",
      "title": "Mitarbeiter Verkauf (m/w/d)",
      "shift_type": "70 - 80%",
      "shift": "70 - 80%",
      "url": "job/1207124601",
      "top_job": 0,
      "area_of_activity": 323,
      "area_of_activity_title": "Filialteam",
      "workload": 59,
      "career_level": 55,
      "career_level_title": "Berufseinsteiger/Berufserfahrener",
      "related_jobs_data": null,
      "sys_language_uid": 0,
      "latitude": "47.5165451",
      "longitude": "8.5944121",
      "city": "Embrach",
      "address": "Industriestrasse 4",
      "zip": "8424",
      "jc_uid": 35317,
      "j_uid": 35317,
      "job_id": "1207124601",
      "start_date": ""
    },
    {
      "rmk_id": "71901",
      "title": "Mitarbeiter Verkauf (m/w/d)",
      "shift_type": "50 - 70%",
      "shift": "50 - 70%",
      "url": "job/1212352901",
      "top_job": 0,
      "area_of_activity": 323,
      "area_of_activity_title": "Filialteam",
      "workload": 59,
      "career_level": 55,
      "career_level_title": "Berufseinsteiger/Berufserfahrener",
      "related_jobs_data": null,
      "sys_language_uid": 0,
      "latitude": "47.3873327",
      "longitude": "9.2742395",
      "city": "Herisau",
      "address": "Cilanderstrasse 10",
      "zip": "9100",
      "jc_uid": 35506,
      "j_uid": 35506,
      "job_id": "1212352901",
      "start_date": ""
    },
    {
      "rmk_id": "72120",
      "title": "Mitarbeiter Verkauf (m/w/d)",
      "shift_type": "60 - 80%",
      "shift": "60 - 80%",
      "url": "job/1216387801",
      "top_job": 0,
      "area_of_activity": 323,
      "area_of_activity_title": "Filialteam",
      "workload": 59,
      "career_level": 55,
      "career_level_title": "Berufseinsteiger/Berufserfahrener",
      "related_jobs_data": null,
      "sys_language_uid": 0,
      "latitude": "47.4818677",
      "longitude": "8.4663603",
      "city": "Dielsdorf",
      "address": "Ruchwiesenstrasse 5",
      "zip": "8157",
      "jc_uid": 35712,
      "j_uid": 35712,
      "job_id": "1216387801",
      "start_date": ""
    },
    {
      "rmk_id": "72145",
      "title": "Mitarbeiter Verkauf (m/w/d)",
      "shift_type": "40 - 80%",
      "shift": "40 - 80%",
      "url": "job/1216926301",
      "top_job": 0,
      "area_of_activity": 323,
      "area_of_activity_title": "Filialteam",
      "workload": 63,
      "career_level": 55,
      "career_level_title": "Berufseinsteiger/Berufserfahrener",
      "related_jobs_data": null,
      "sys_language_uid": 0,
      "latitude": "47.1820921",
      "longitude": "7.9824705",
      "city": "Schötz",
      "address": "Schürmatt 5",
      "zip": "6247",
      "jc_uid": 35736,
      "j_uid": 35736,
      "job_id": "1216926301",
      "start_date": ""
    },
    {
      "rmk_id": "72199",
      "title": "Mitarbeiter Verkauf (m/w/d)",
      "shift_type": "50%",
      "shift": "50%",
      "url": "job/1218930801",
      "top_job": 0,
      "area_of_activity": 323,
      "area_of_activity_title": "Filialteam",
      "workload": 59,
      "career_level": 55,
      "career_level_title": "Berufseinsteiger/Berufserfahrener",
      "related_jobs_data": null,
      "sys_language_uid": 0,
      "latitude": "47.5693742",
      "longitude": "8.9089996",
      "city": "Frauenfeld",
      "address": "Juchstrasse 28",
      "zip": "8500",
      "jc_uid": 35787,
      "j_uid": 35787,
      "job_id": "1218930801",
      "start_date": ""
    },
    {
      "rmk_id": "72200",
      "title": "Mitarbeiter Verkauf (m/w/d)",
      "shift_type": "60 - 80%",
      "shift": "60 - 80%",
      "url": "job/1219248501",
      "top_job": 0,
      "area_of_activity": 323,
      "area_of_activity_title": "Filialteam",
      "workload": 59,
      "career_level": 55,
      "career_level_title": "Berufseinsteiger/Berufserfahrener",
      "related_jobs_data": null,
      "sys_language_uid": 0,
      "latitude": "47.5056186",
      "longitude": "8.5403774",
      "city": "Bachenbülach",
      "address": "Grabenstrasse 5",
      "zip": "8184",
      "jc_uid": 35788,
      "j_uid": 35788,
      "job_id": "1219248501",
      "start_date": ""
    },
    {
      "rmk_id": "72201",
      "title": "Mitarbeiter Verkauf (m/w/d)",
      "shift_type": "40 - 60%",
      "shift": "40 - 60%",
      "url": "job/1219263701",
      "top_job": 0,
      "area_of_activity": 323,
      "area_of_activity_title": "Filialteam",
      "workload": 59,
      "career_level": 55,
      "career_level_title": "Berufseinsteiger/Berufserfahrener",
      "related_jobs_data": null,
      "sys_language_uid": 0,
      "latitude": "47.3454695",
      "longitude": "8.5348892",
      "city": "Zürich",
      "address": "Mythenquai 353",
      "zip": "8038",
      "jc_uid": 35789,
      "j_uid": 35789,
      "job_id": "1219263701",
      "start_date": ""
    },
    {
      "rmk_id": "72487",
      "title": "Mitarbeiter Verkauf (m/w/d)",
      "shift_type": "50 - 70%",
      "shift": "50 - 70%",
      "url": "job/1224760301",
      "top_job": 0,
      "area_of_activity": 323,
      "area_of_activity_title": "Filialteam",
      "workload": 59,
      "career_level": 55,
      "career_level_title": "Berufseinsteiger/Berufserfahrener",
      "related_jobs_data": null,
      "sys_language_uid": 0,
      "latitude": "47.4138016",
      "longitude": "8.5388215",
      "city": "Zürich",
      "address": "Binzmühlestrasse 102",
      "zip": "8050",
      "jc_uid": 35999,
      "j_uid": 35999,
      "job_id": "1224760301",
      "start_date": ""
    },
    {
      "rmk_id": "72497",
      "title": "Mitarbeiter Verkauf (m/w/d)",
      "shift_type": "50 - 80%",
      "shift": "50 - 80%",
      "url": "job/1224936601",
      "top_job": 0,
      "area_of_activity": 323,
      "area_of_activity_title": "Filialteam",
      "workload": 59,
      "career_level": 55,
      "career_level_title": "Berufseinsteiger/Berufserfahrener",
      "related_jobs_data": null,
      "sys_language_uid": 0,
      "latitude": "47.405986",
      "longitude": "8.591877",
      "city": "Zürich",
      "address": "Überlandstrasse 441",
      "zip": "8051",
      "jc_uid": 36008,
      "j_uid": 36008,
      "job_id": "1224936601",
      "start_date": ""
    },
    {
      "rmk_id": "72608",
      "title": "Mitarbeiter Verkauf (m/w/d)",
      "shift_type": "40 - 100%",
      "shift": "40 - 100%",
      "url": "job/1226528001",
      "top_job": 0,
      "area_of_activity": 323,
      "area_of_activity_title": "Filialteam",
      "workload": 63,
      "career_level": 55,
      "career_level_title": "Berufseinsteiger/Berufserfahrener",
      "related_jobs_data": null,
      "sys_language_uid": 0,
      "latitude": "47.3050647",
      "longitude": "8.823242",
      "city": "Hinwil",
      "address": "Wässeristrasse 18",
      "zip": "8340",
      "jc_uid": 36054,
      "j_uid": 36054,
      "job_id": "1226528001",
      "start_date": ""
    },
    {
      "rmk_id": "72864",
      "title": "Mitarbeiter Verkauf (m/w/d)",
      "shift_type": "50 - 80%",
      "shift": "50 - 80%",
      "url": "job/1234596301",
      "top_job": 0,
      "area_of_activity": 323,
      "area_of_activity_title": "Filialteam",
      "workload": 59,
      "career_level": 55,
      "career_level_title": "Berufseinsteiger/Berufserfahrener",
      "related_jobs_data": null,
      "sys_language_uid": 0,
      "latitude": "47.408745",
      "longitude": "8.5438751",
      "city": "Zürich",
      "address": "Baumackerstrasse 35",
      "zip": "8050",
      "jc_uid": 36347,
      "j_uid": 36347,
      "job_id": "1234596301",
      "start_date": ""
    },
    {
      "rmk_id": "72869",
      "title": "Mitarbeiter Verkauf (m/w/d)",
      "shift_type": "50 - 70%",
      "shift": "50 - 70%",
      "url": "job/1234691901",
      "top_job": 0,
      "area_of_activity": 323,
      "area_of_activity_title": "Filialteam",
      "workload": 59,
      "career_level": 55,
      "career_level_title": "Berufseinsteiger/Berufserfahrener",
      "related_jobs_data": null,
      "sys_language_uid": 0,
      "latitude": "47.4219797",
      "longitude": "9.3700717",
      "city": "St. Gallen",
      "address": "St. Leonhardstrasse 39",
      "zip": "9000",
      "jc_uid": 36352,
      "j_uid": 36352,
      "job_id": "1234691901",
      "start_date": ""
    },
    {
      "rmk_id": "72955",
      "title": "Mitarbeiter Verkauf (m/w/d)",
      "shift_type": "50 - 60%",
      "shift": "50 - 60%",
      "url": "job/1237075401",
      "top_job": 0,
      "area_of_activity": 323,
      "area_of_activity_title": "Filialteam",
      "workload": 63,
      "career_level": 55,
      "career_level_title": "Berufseinsteiger/Berufserfahrener",
      "related_jobs_data": null,
      "sys_language_uid": 0,
      "latitude": "47.228919",
      "longitude": "8.9651441",
      "city": "Uznach",
      "address": "Wiesentalstrasse 2",
      "zip": "8730",
      "jc_uid": 36439,
      "j_uid": 36439,
      "job_id": "1237075401",
      "start_date": ""
    },
    {
      "rmk_id": "72989",
      "title": "Mitarbeiter Verkauf (m/w/d)",
      "shift_type": "40 - 80%",
      "shift": "40 - 80%",
      "url": "job/1238202801",
      "top_job": 0,
      "area_of_activity": 323,
      "area_of_activity_title": "Filialteam",
      "workload": 59,
      "career_level": 55,
      "career_level_title": "Berufseinsteiger/Berufserfahrener",
      "related_jobs_data": null,
      "sys_language_uid": 0,
      "latitude": "46.7753312",
      "longitude": "9.1912637",
      "city": "Ilanz",
      "address": "Via Grüneck 2",
      "zip": "7130",
      "jc_uid": 36462,
      "j_uid": 36462,
      "job_id": "1238202801",
      "start_date": ""
    },
    {
      "rmk_id": "72999",
      "title": "Mitarbeiter Verkauf (m/w/d)",
      "shift_type": "40 - 80%",
      "shift": "40 - 80%",
      "url": "job/1238391201",
      "top_job": 0,
      "area_of_activity": 323,
      "area_of_activity_title": "Filialteam",
      "workload": 59,
      "career_level": 55,
      "career_level_title": "Berufseinsteiger/Berufserfahrener",
      "related_jobs_data": null,
      "sys_language_uid": 0,
      "latitude": "47.3641902",
      "longitude": "9.5561945",
      "city": "Altstätten",
      "address": "Oberrieterstrasse 85",
      "zip": "9450",
      "jc_uid": 36470,
      "j_uid": 36470,
      "job_id": "1238391201",
      "start_date": ""
    },
    {
      "rmk_id": "73001",
      "title": "Mitarbeiter Verkauf (m/w/d)",
      "shift_type": "40 - 80%",
      "shift": "40 - 80%",
      "url": "job/1238401201",
      "top_job": 0,
      "area_of_activity": 323,
      "area_of_activity_title": "Filialteam",
      "workload": 59,
      "career_level": 55,
      "career_level_title": "Berufseinsteiger/Berufserfahrener",
      "related_jobs_data": null,
      "sys_language_uid": 0,
      "latitude": "46.7921139",
      "longitude": "9.8193208",
      "city": "Davos",
      "address": "Bahnhofstrasse 4A",
      "zip": "7270",
      "jc_uid": 36471,
      "j_uid": 36471,
      "job_id": "1238401201",
      "start_date": ""
    },
    {
      "rmk_id": "73010",
      "title": "Mitarbeiter Verkauf (m/w/d)",
      "shift_type": "40 - 80%",
      "shift": "",
      "url": "job/1239063101",
      "top_job": 0,
      "area_of_activity": 323,
      "area_of_activity_title": "Filialteam",
      "workload": 63,
      "career_level": 55,
      "career_level_title": "Berufseinsteiger/Berufserfahrener",
      "related_jobs_data": null,
      "sys_language_uid": 0,
      "latitude": "47.1315415",
      "longitude": "8.4031098",
      "city": "Honau",
      "address": "Gwärbstrasse 4",
      "zip": "6038",
      "jc_uid": 36479,
      "j_uid": 36479,
      "job_id": "1239063101",
      "start_date": ""
    },
    {
      "rmk_id": "73032",
      "title": "Mitarbeiter Verkauf (m/w/d)",
      "shift_type": "50 - 70%",
      "shift": "",
      "url": "job/1239691101",
      "top_job": 0,
      "area_of_activity": 323,
      "area_of_activity_title": "Filialteam",
      "workload": 59,
      "career_level": 55,
      "career_level_title": "Berufseinsteiger/Berufserfahrener",
      "related_jobs_data": null,
      "sys_language_uid": 0,
      "latitude": "47.1929846",
      "longitude": "7.4070959",
      "city": "Grenchen",
      "address": "Leuzigenstrasse 4",
      "zip": "2540",
      "jc_uid": 36500,
      "j_uid": 36500,
      "job_id": "1239691101",
      "start_date": ""
    },
    {
      "rmk_id": "73122",
      "title": "Mitarbeiter Verkauf (m/w/d)",
      "shift_type": "40%",
      "shift": "40%",
      "url": "job/1241747101",
      "top_job": 0,
      "area_of_activity": 323,
      "area_of_activity_title": "Filialteam",
      "workload": 59,
      "career_level": 55,
      "career_level_title": "Berufseinsteiger/Berufserfahrener",
      "related_jobs_data": null,
      "sys_language_uid": 0,
      "latitude": "47.7160584",
      "longitude": "8.6646218",
      "city": "Schaffhausen",
      "address": "Gennersbrunnerstrasse 63",
      "zip": "8207",
      "jc_uid": 36574,
      "j_uid": 36574,
      "job_id": "1241747101",
      "start_date": ""
    },
    {
      "rmk_id": "73119",
      "title": "Mitarbeiter Verkauf (m/w/d)",
      "shift_type": "40 - 60%",
      "shift": "40 - 60%",
      "url": "job/1241754601",
      "top_job": 0,
      "area_of_activity": 323,
      "area_of_activity_title": "Filialteam",
      "workload": 59,
      "career_level": 55,
      "career_level_title": "Berufseinsteiger/Berufserfahrener",
      "related_jobs_data": null,
      "sys_language_uid": 0,
      "latitude": "47.3067661",
      "longitude": "7.9257397",
      "city": "Oftringen",
      "address": "Spitalweidstrasse 1",
      "zip": "4665",
      "jc_uid": 36575,
      "j_uid": 36575,
      "job_id": "1241754601",
      "start_date": ""
    },
    {
      "rmk_id": "73132",
      "title": "Mitarbeiter Verkauf (m/w/d)",
      "shift_type": "40 - 80%",
      "shift": "40 - 80%",
      "url": "job/1242114001",
      "top_job": 0,
      "area_of_activity": 323,
      "area_of_activity_title": "Filialteam",
      "workload": 59,
      "career_level": 55,
      "career_level_title": "Berufseinsteiger/Berufserfahrener",
      "related_jobs_data": null,
      "sys_language_uid": 0,
      "latitude": "47.3485464",
      "longitude": "7.8908869",
      "city": "Olten",
      "address": "Solothurnerstrasse 201",
      "zip": "4600",
      "jc_uid": 36582,
      "j_uid": 36582,
      "job_id": "1242114001",
      "start_date": ""
    },
    {
      "rmk_id": "73150",
      "title": "Mitarbeiter Verkauf (m/w/d)",
      "shift_type": "40 - 70%",
      "shift": "40 - 70%",
      "url": "job/1242510801",
      "top_job": 0,
      "area_of_activity": 323,
      "area_of_activity_title": "Filialteam",
      "workload": 59,
      "career_level": 55,
      "career_level_title": "Berufseinsteiger/Berufserfahrener",
      "related_jobs_data": null,
      "sys_language_uid": 0,
      "latitude": "46.9484149",
      "longitude": "7.4478627",
      "city": "Bern",
      "address": "Kornhausplatz 7",
      "zip": "3011",
      "jc_uid": 36596,
      "j_uid": 36596,
      "job_id": "1242510801",
      "start_date": ""
    },
    {
      "rmk_id": "73189",
      "title": "Mitarbeiter Verkauf (m/w/d)",
      "shift_type": "40 - 60%",
      "shift": "40 - 60%",
      "url": "job/1244238901",
      "top_job": 0,
      "area_of_activity": 323,
      "area_of_activity_title": "Filialteam",
      "workload": 59,
      "career_level": 55,
      "career_level_title": "Berufseinsteiger/Berufserfahrener",
      "related_jobs_data": null,
      "sys_language_uid": 0,
      "latitude": "47.5403814",
      "longitude": "7.597759",
      "city": "Basel",
      "address": "Dornacherstrasse 258",
      "zip": "4053",
      "jc_uid": 36631,
      "j_uid": 36631,
      "job_id": "1244238901",
      "start_date": ""
    },
    {
      "rmk_id": "73200",
      "title": "Mitarbeiter Verkauf (m/w/d)",
      "shift_type": "50 - 70%",
      "shift": "50 - 70%",
      "url": "job/1244555801",
      "top_job": 0,
      "area_of_activity": 323,
      "area_of_activity_title": "Filialteam",
      "workload": 59,
      "career_level": 55,
      "career_level_title": "Berufseinsteiger/Berufserfahrener",
      "related_jobs_data": null,
      "sys_language_uid": 0,
      "latitude": "47.3697095",
      "longitude": "8.7719418",
      "city": "Pfäffikon",
      "address": "Speckstrasse 1",
      "zip": "8330",
      "jc_uid": 36643,
      "j_uid": 36643,
      "job_id": "1244555801",
      "start_date": ""
    },
    {
      "rmk_id": "73202",
      "title": "Mitarbeiter Verkauf (m/w/d)",
      "shift_type": "50 - 70%",
      "shift": "50 - 70%",
      "url": "job/1244566701",
      "top_job": 0,
      "area_of_activity": 323,
      "area_of_activity_title": "Filialteam",
      "workload": 59,
      "career_level": 55,
      "career_level_title": "Berufseinsteiger/Berufserfahrener",
      "related_jobs_data": null,
      "sys_language_uid": 0,
      "latitude": "47.441737",
      "longitude": "8.8339189",
      "city": "Turbenthal",
      "address": "Tösstalstrasse 11",
      "zip": "8488",
      "jc_uid": 36644,
      "j_uid": 36644,
      "job_id": "1244566701",
      "start_date": ""
    },
    {
      "rmk_id": "73033",
      "title": "Mitarbeiter Wareneingang Frische (m/w/d)",
      "shift_type": "70%",
      "shift": "",
      "url": "job/1240165801",
      "top_job": 0,
      "area_of_activity": 385,
      "area_of_activity_title": "Logistik",
      "workload": 59,
      "career_level": 43,
      "career_level_title": "Berufserfahrener",
      "related_jobs_data": null,
      "sys_language_uid": 0,
      "latitude": "47.1138698",
      "longitude": "8.3662685",
      "city": "Perlen",
      "address": "Aldi-Suisse-Strasse 2",
      "zip": "6035",
      "jc_uid": 36510,
      "j_uid": 36510,
      "job_id": "1240165801",
      "start_date": ""
    },
    {
      "rmk_id": "57665",
      "title": "Spontanbewerbung - Verwaltung, Schwarzenbach",
      "shift_type": "",
      "shift": "",
      "url": "job/893777801",
      "top_job": 0,
      "area_of_activity": 352,
      "area_of_activity_title": "Administration",
      "workload": 63,
      "career_level": 43,
      "career_level_title": "Berufserfahrener",
      "related_jobs_data": null,
      "sys_language_uid": 0,
      "latitude": "47.448482",
      "longitude": "9.06937",
      "city": "Schwarzenbach",
      "address": "Niederstettenstrasse 3",
      "zip": "9536",
      "jc_uid": 24429,
      "j_uid": 24429,
      "job_id": "893777801",
      "start_date": ""
    },
    {
      "rmk_id": "69443",
      "title": "Stellvertretender Filialleiter (m/w/d)",
      "shift_type": "50 - 70%",
      "shift": "50 - 70%",
      "url": "job/1157056301",
      "top_job": 0,
      "area_of_activity": 323,
      "area_of_activity_title": "Filialteam",
      "workload": 59,
      "career_level": 43,
      "career_level_title": "Berufserfahrener",
      "related_jobs_data": null,
      "sys_language_uid": 0,
      "latitude": "47.0414023",
      "longitude": "9.0704776",
      "city": "Glarus",
      "address": "Schweizerhofstrasse 14",
      "zip": "8750",
      "jc_uid": 33353,
      "j_uid": 33353,
      "job_id": "1157056301",
      "start_date": ""
    },
    {
      "rmk_id": "71343",
      "title": "Stellvertretender Filialleiter (m/w/d)",
      "shift_type": "60 - 80%",
      "shift": "60 - 80%",
      "url": "job/1197836401",
      "top_job": 0,
      "area_of_activity": 323,
      "area_of_activity_title": "Filialteam",
      "workload": 59,
      "career_level": 43,
      "career_level_title": "Berufserfahrener",
      "related_jobs_data": null,
      "sys_language_uid": 0,
      "latitude": "47.2572967",
      "longitude": "8.6833697",
      "city": "Männedorf",
      "address": "Seestrasse 61",
      "zip": "8708",
      "jc_uid": 35042,
      "j_uid": 35042,
      "job_id": "1197836401",
      "start_date": ""
    },
    {
      "rmk_id": "71474",
      "title": "Stellvertretender Filialleiter (m/w/d)",
      "shift_type": "40 - 100%",
      "shift": "40 - 100%",
      "url": "job/1202349901",
      "top_job": 0,
      "area_of_activity": 323,
      "area_of_activity_title": "Filialteam",
      "workload": 63,
      "career_level": 43,
      "career_level_title": "Berufserfahrener",
      "related_jobs_data": null,
      "sys_language_uid": 0,
      "latitude": "47.3319223",
      "longitude": "8.7924831",
      "city": "Wetzikon",
      "address": "Motorenstrasse 99",
      "zip": "8620",
      "jc_uid": 35154,
      "j_uid": 35154,
      "job_id": "1202349901",
      "start_date": ""
    },
    {
      "rmk_id": "71556",
      "title": "Stellvertretender Filialleiter (m/w/d)",
      "shift_type": "40 - 100%",
      "shift": "40 - 100%",
      "url": "job/1204219401",
      "top_job": 0,
      "area_of_activity": 323,
      "area_of_activity_title": "Filialteam",
      "workload": 63,
      "career_level": 43,
      "career_level_title": "Berufserfahrener",
      "related_jobs_data": null,
      "sys_language_uid": 0,
      "latitude": "47.3480637",
      "longitude": "8.716876",
      "city": "Uster",
      "address": "Zürichstrasse 1",
      "zip": "8610",
      "jc_uid": 35215,
      "j_uid": 35215,
      "job_id": "1204219401",
      "start_date": ""
    },
    {
      "rmk_id": "72052",
      "title": "Stellvertretender Filialleiter (m/w/d)",
      "shift_type": "60 - 100%",
      "shift": "60 - 100%",
      "url": "job/1215035701",
      "top_job": 0,
      "area_of_activity": 323,
      "area_of_activity_title": "Filialteam",
      "workload": 63,
      "career_level": 43,
      "career_level_title": "Berufserfahrener",
      "related_jobs_data": null,
      "sys_language_uid": 0,
      "latitude": "47.4987231",
      "longitude": "8.9054953",
      "city": "Aadorf",
      "address": "Wittenwilerstrasse 45",
      "zip": "8355",
      "jc_uid": 35640,
      "j_uid": 35640,
      "job_id": "1215035701",
      "start_date": ""
    },
    {
      "rmk_id": "72728",
      "title": "Stellvertretender Filialleiter (m/w/d)",
      "shift_type": "40 - 100%",
      "shift": "40 - 100%",
      "url": "job/1230049601",
      "top_job": 0,
      "area_of_activity": 323,
      "area_of_activity_title": "Filialteam",
      "workload": 63,
      "career_level": 43,
      "career_level_title": "Berufserfahrener",
      "related_jobs_data": null,
      "sys_language_uid": 0,
      "latitude": "47.2415594",
      "longitude": "8.718863",
      "city": "Stäfa",
      "address": "Häldelistrasse 11",
      "zip": "8712",
      "jc_uid": 36141,
      "j_uid": 36141,
      "job_id": "1230049601",
      "start_date": ""
    },
    {
      "rmk_id": "72726",
      "title": "Stellvertretender Filialleiter (m/w/d)",
      "shift_type": "40 - 100%",
      "shift": "40 - 100%",
      "url": "job/1230059401",
      "top_job": 0,
      "area_of_activity": 323,
      "area_of_activity_title": "Filialteam",
      "workload": 63,
      "career_level": 43,
      "career_level_title": "Berufserfahrener",
      "related_jobs_data": null,
      "sys_language_uid": 0,
      "latitude": "47.3050647",
      "longitude": "8.823242",
      "city": "Hinwil",
      "address": "Wässeristrasse 18",
      "zip": "8340",
      "jc_uid": 36142,
      "j_uid": 36142,
      "job_id": "1230059401",
      "start_date": ""
    },
    {
      "rmk_id": "73180",
      "title": "Stellvertretender Filialleiter (m/w/d)",
      "shift_type": "50 - 80%",
      "shift": "50 - 80%",
      "url": "job/1244115801",
      "top_job": 0,
      "area_of_activity": 323,
      "area_of_activity_title": "Filialteam",
      "workload": 59,
      "career_level": 43,
      "career_level_title": "Berufserfahrener",
      "related_jobs_data": null,
      "sys_language_uid": 0,
      "latitude": "47.1640025",
      "longitude": "9.4729333",
      "city": "Buchs",
      "address": "Churerstrasse 12",
      "zip": "9470",
      "jc_uid": 36623,
      "j_uid": 36623,
      "job_id": "1244115801",
      "start_date": ""
    },
    {
      "rmk_id": "72210",
      "title": "Stellvertretender Filialleiter (m/w/d)",
      "shift_type": "80%",
      "shift": "80%",
      "url": "job/1219317301",
      "top_job": 0,
      "area_of_activity": 323,
      "area_of_activity_title": "Filialteam",
      "workload": 59,
      "career_level": 55,
      "career_level_title": "Berufseinsteiger/Berufserfahrener",
      "related_jobs_data": null,
      "sys_language_uid": 0,
      "latitude": "47.3454695",
      "longitude": "8.5348892",
      "city": "Zürich",
      "address": "Mythenquai 353",
      "zip": "8038",
      "jc_uid": 35799,
      "j_uid": 35799,
      "job_id": "1219317301",
      "start_date": ""
    },
    {
      "rmk_id": "72851",
      "title": "Stellvertretender Filialleiter (m/w/d)",
      "shift_type": "80%",
      "shift": "80%",
      "url": "job/1234203501",
      "top_job": 0,
      "area_of_activity": 323,
      "area_of_activity_title": "Filialteam",
      "workload": 63,
      "career_level": 55,
      "career_level_title": "Berufseinsteiger/Berufserfahrener",
      "related_jobs_data": null,
      "sys_language_uid": 0,
      "latitude": "47.4818677",
      "longitude": "8.4663603",
      "city": "Dielsdorf",
      "address": "Ruchwiesenstrasse 5",
      "zip": "8157",
      "jc_uid": 36336,
      "j_uid": 36336,
      "job_id": "1234203501",
      "start_date": ""
    },
    {
      "rmk_id": "73123",
      "title": "Stellvertretender Filialleiter (m/w/d)",
      "shift_type": "40 - 70%",
      "shift": "40 - 70%",
      "url": "job/1241778401",
      "top_job": 0,
      "area_of_activity": 323,
      "area_of_activity_title": "Filialteam",
      "workload": 59,
      "career_level": 55,
      "career_level_title": "Berufseinsteiger/Berufserfahrener",
      "related_jobs_data": null,
      "sys_language_uid": 0,
      "latitude": "47.562977",
      "longitude": "7.5556922",
      "city": "Allschwil",
      "address": "Hegenheimermattweg 183",
      "zip": "4123",
      "jc_uid": 36576,
      "j_uid": 36576,
      "job_id": "1241778401",
      "start_date": ""
    },
    {
      "rmk_id": "73129",
      "title": "Stellvertretender Filialleiter (m/w/d)",
      "shift_type": "50 - 80%",
      "shift": "50 - 80%",
      "url": "job/1242114301",
      "top_job": 0,
      "area_of_activity": 323,
      "area_of_activity_title": "Filialteam",
      "workload": 59,
      "career_level": 55,
      "career_level_title": "Berufseinsteiger/Berufserfahrener",
      "related_jobs_data": null,
      "sys_language_uid": 0,
      "latitude": "47.2128166",
      "longitude": "7.7868336",
      "city": "Langenthal",
      "address": "Brauihof 22",
      "zip": "4900",
      "jc_uid": 36583,
      "j_uid": 36583,
      "job_id": "1242114301",
      "start_date": ""
    }
  ],
  "geoLocation": null
}